{
"type": "FeatureCollection",
"features": [
{"type": "Feature", 
 "properties": {
"rentrak_id": "9183", "name": "Palm Theatre", "address": "817 Palm St, San Luis Obispo, CA"},
"geometry": {
"type": "Point",
"coordinates": [-120.6638196, 35.2815558]
}}
,
{"type": "Feature", 
 "properties": {
"rentrak_id": "8961", "name": "King City 3", "address": "200 Broadway St, King City, CA"},
"geometry": {
"type": "Point",
"coordinates": [-121.1261771, 36.21372]
}}
,
{"type": "Feature", 
 "properties": {
"rentrak_id": "5549", "name": "Van Buren 3 DI", "address": "3035 Van Buren Blvd, Riverside, CA"},
"geometry": {
"type": "Point",
"coordinates": [-117.4364228, 33.9113137]
}}
,
{"type": "Feature", 
 "properties": {
"rentrak_id": "990802", "name": "CGV Cinemas LA", "address": "621 S Western Ave, Los Angeles, CA"},
"geometry": {
"type": "Point",
"coordinates": [-118.3093961, 34.0626656]
}}
,
{"type": "Feature", 
 "properties": {
"rentrak_id": "5521", "name": "Rancho Niguel 7", "address": "25471 Rancho Niguel Rd, Laguna Niguel, CA"},
"geometry": {
"type": "Point",
"coordinates": [-117.68533, 33.5560509]
}}
,
{"type": "Feature", 
 "properties": {
"rentrak_id": "5351", "name": "Sierra 2", "address": "819 Main St, Susanville, CA"},
"geometry": {
"type": "Point",
"coordinates": [-120.659593, 40.418398]
}}
,
{"type": "Feature", 
 "properties": {
"rentrak_id": "5361", "name": "Emery Bay Stadium 10", "address": "6330 Christie Ave, Emeryville, CA"},
"geometry": {
"type": "Point",
"coordinates": [-122.2942731, 37.8432237]
}}
,
{"type": "Feature", 
 "properties": {
"rentrak_id": "991043", "name": "Covina 30 with IMAX", "address": "1414 N Azusa Ave, Covina, CA"},
"geometry": {
"type": "Point",
"coordinates": [-117.905384, 34.10515]
}}
,
{"type": "Feature", 
 "properties": {
"rentrak_id": "991073", "name": "Renaissance Stadium 14 + IMAX", "address": "1 E Main St, Alhambra, CA"},
"geometry": {
"type": "Point",
"coordinates": [-118.1266886, 34.0961837]
}}
,
{"type": "Feature", 
 "properties": {
"rentrak_id": "991075", "name": "Temecula Stadium 15 + IMAX", "address": "40750 Winchester Rd, Temecula, CA"},
"geometry": {
"type": "Point",
"coordinates": [-117.1518125, 33.52525]
}}
,
{"type": "Feature", 
 "properties": {
"rentrak_id": "991078", "name": "Palladio 16 Cinemas", "address": "240 Palladio Parkway, Folsom, CA"},
"geometry": {
"type": "Point",
"coordinates": [-121.120188, 38.648324]
}}
,
{"type": "Feature", 
 "properties": {
"rentrak_id": "991079", "name": "Tower Theatre", "address": "815 E. Olive Ave., Fresno, CA"},
"geometry": {
"type": "Point",
"coordinates": [-119.8012842, 36.7577748]
}}
,
{"type": "Feature", 
 "properties": {
"rentrak_id": "991080", "name": "Century Downtown Pleasant Hill 16 + XD", "address": "125 Crescent Dr, Pleasant Hill, CA"},
"geometry": {
"type": "Point",
"coordinates": [-122.0619576, 37.9444233]
}}
,
{"type": "Feature", 
 "properties": {
"rentrak_id": "906470", "name": "Nevada Theatre", "address": "401 Broad St, Nevada City, CA"},
"geometry": {
"type": "Point",
"coordinates": [-121.020125, 39.26273]
}}
,
{"type": "Feature", 
 "properties": {
"rentrak_id": "906471", "name": "Chabot Space & Science Center Tien MegaDome", "address": "10000 Skyline Blvd, Oakland, CA"},
"geometry": {
"type": "Point",
"coordinates": [-122.1804847, 37.8186768]
}}
,
{"type": "Feature", 
 "properties": {
"rentrak_id": "990139", "name": "Moreno Valley 16", "address": "22500 Towngate Circle, Moreno Valley, CA"},
"geometry": {
"type": "Point",
"coordinates": [-117.2713237, 33.938769]
}}
,
{"type": "Feature", 
 "properties": {
"rentrak_id": "904269", "name": "Vista Village Metro 15", "address": "25 Main St, Vista, CA"},
"geometry": {
"type": "Point",
"coordinates": [-97.00674509999999, 32.9534828]
}}
,
{"type": "Feature", 
 "properties": {
"rentrak_id": "990138", "name": "Chino Hills 18", "address": "3070 Chino Ave, Chino Hills, CA"},
"geometry": {
"type": "Point",
"coordinates": [-117.7386201, 34.0130143]
}}
,
{"type": "Feature", 
 "properties": {
"rentrak_id": "991301", "name": "Laemmle's NoHo 7", "address": "5240 Lankershim Blvd, North Hollywood, CA"},
"geometry": {
"type": "Point",
"coordinates": [-118.3750531, 34.166249]
}}
,
{"type": "Feature", 
 "properties": {
"rentrak_id": "991386", "name": "Century River Park 16 + XD (10/26)", "address": "2766 Seaglass Way, Oxnard, CA"},
"geometry": {
"type": "Point",
"coordinates": [-119.1757829, 34.2398156]
}}
,
{"type": "Feature", 
 "properties": {
"rentrak_id": "991381", "name": "ArcLight La Jolla (11/2)", "address": "4525 La Jolla Village Drive, La Jolla, CA"},
"geometry": {
"type": "Point",
"coordinates": [-117.2100197, 32.8710092]
}}
,
{"type": "Feature", 
 "properties": {
"rentrak_id": "991421", "name": "United Talent Agency Screening Room", "address": "9336 Civic Center Dr, Beverly Hills, CA"},
"geometry": {
"type": "Point",
"coordinates": [-118.3977741, 34.074765]
}}
,
{"type": "Feature", 
 "properties": {
"rentrak_id": "991328", "name": "Century at Pacific Commons + XD", "address": "43917 Pacific Commons Blvd, Fremont, CA"},
"geometry": {
"type": "Point",
"coordinates": [-121.9709119, 37.501106]
}}
,
{"type": "Feature", 
 "properties": {
"rentrak_id": "991247", "name": "BLVD Cinemas", "address": "742 W. Lancaster Blvd., Lancaster, CA"},
"geometry": {
"type": "Point",
"coordinates": [-118.14342, 34.697341]
}}
,
{"type": "Feature", 
 "properties": {
"rentrak_id": "991395", "name": "Century Napa Valley 12 + XD", "address": "195 Gasser Dr., Napa, CA"},
"geometry": {
"type": "Point",
"coordinates": [-122.2785229, 38.281391]
}}
,
{"type": "Feature", 
 "properties": {
"rentrak_id": "991321", "name": "San Francisco Film Society Cinema", "address": "1746 Post Street, San Francisco, CA"},
"geometry": {
"type": "Point",
"coordinates": [-122.430597, 37.78575600000001]
}}
,
{"type": "Feature", 
 "properties": {
"rentrak_id": "991224", "name": "Village Cinemas 2", "address": "3001 Northstar Drive, Truckee, CA"},
"geometry": {
"type": "Point",
"coordinates": [-120.120858, 39.275456]
}}
,
{"type": "Feature", 
 "properties": {
"rentrak_id": "991307", "name": "Monterey Cinemas 14 + XD", "address": "1700 Del Monte Center, Monterey, CA"},
"geometry": {
"type": "Point",
"coordinates": [-121.8937889, 36.5838735]
}}
,
{"type": "Feature", 
 "properties": {
"rentrak_id": "991335", "name": "Redlands Fox Theatre", "address": "123 Cajon St, Redlands, CA"},
"geometry": {
"type": "Point",
"coordinates": [-117.1817179, 34.0541275]
}}
,
{"type": "Feature", 
 "properties": {
"rentrak_id": "991345", "name": "San Bernardino Stadium 14 & RPX (6/29)", "address": "450 North E Street, San Bernardino, CA"},
"geometry": {
"type": "Point",
"coordinates": [-117.2949709, 34.1074248]
}}
,
{"type": "Feature", 
 "properties": {
"rentrak_id": "991420", "name": "Arena Cinema", "address": "1625 N. Las Palmas Ave., Hollywood, CA"},
"geometry": {
"type": "Point",
"coordinates": [-118.336237, 34.100661]
}}
,
{"type": "Feature", 
 "properties": {
"rentrak_id": "991383", "name": "Civic Plaza 12 with GS (12/14)", "address": "9711 9th St, Hesperia, CA"},
"geometry": {
"type": "Point",
"coordinates": [-117.3198921, 34.4263729]
}}
,
{"type": "Feature", 
 "properties": {
"rentrak_id": "5526", "name": "Picture Show @ Main Place", "address": "2800 N Main St, Santa Ana, CA"},
"geometry": {
"type": "Point",
"coordinates": [-117.8692674, 33.7763203]
}}
,
{"type": "Feature", 
 "properties": {
"rentrak_id": "5535", "name": "Laguna Hills Mall 3", "address": "24199 Laguna Hills Mall, Laguna Hills, CA"},
"geometry": {
"type": "Point",
"coordinates": [-117.7068372, 33.6096833]
}}
,
{"type": "Feature", 
 "properties": {
"rentrak_id": "8387", "name": "Movies 4", "address": "227 E Barton Ave, Lompoc, CA"},
"geometry": {
"type": "Point",
"coordinates": [-120.4604478, 34.6571104]
}}
,
{"type": "Feature", 
 "properties": {
"rentrak_id": "8400", "name": "Rancho Del Rey Stadium 16", "address": "1005 Tierra Del Rey, Chula Vista, CA"},
"geometry": {
"type": "Point",
"coordinates": [-117.020271, 32.638066]
}}
,
{"type": "Feature", 
 "properties": {
"rentrak_id": "8401", "name": "Market Place Stadium 10", "address": "13800 Jamboree Rd, Irvine, CA"},
"geometry": {
"type": "Point",
"coordinates": [-117.7913049, 33.7232086]
}}
,
{"type": "Feature", 
 "properties": {
"rentrak_id": "8412", "name": "Rohnert Park 16", "address": "555 Rohnert Park Expressway W, Rohnert Park, CA"},
"geometry": {
"type": "Point",
"coordinates": [-122.722208, 38.34713199999999]
}}
,
{"type": "Feature", 
 "properties": {
"rentrak_id": "9268", "name": "Richmond Hilltop 16", "address": "3200 Klose Way, Richmond, CA"},
"geometry": {
"type": "Point",
"coordinates": [-122.321518, 37.9818832]
}}
,
{"type": "Feature", 
 "properties": {
"rentrak_id": "9270", "name": "Smith Rafael Film Center", "address": "1118 4th St, San Rafael, CA"},
"geometry": {
"type": "Point",
"coordinates": [-122.5285771, 37.9736693]
}}
,
{"type": "Feature", 
 "properties": {
"rentrak_id": "9280", "name": "Premiere 6 Los Banos", "address": "245 Mercey Springs Rd, Los Banos, CA"},
"geometry": {
"type": "Point",
"coordinates": [-120.8363153, 37.0656697]
}}
,
{"type": "Feature", 
 "properties": {
"rentrak_id": "7954", "name": "Hitching Post 4", "address": "201 S Green St, Tehachapi, CA"},
"geometry": {
"type": "Point",
"coordinates": [-118.4480383, 35.130788]
}}
,
{"type": "Feature", 
 "properties": {
"rentrak_id": "7956", "name": "Cinema 6", "address": "56401 29 Palms Hwy, Yucca Valley, CA"},
"geometry": {
"type": "Point",
"coordinates": [-116.433804, 34.119971]
}}
,
{"type": "Feature", 
 "properties": {
"rentrak_id": "7960", "name": "Reel Time Theater", "address": "130 W Elm Ave, Coalinga, CA"},
"geometry": {
"type": "Point",
"coordinates": [-120.3605941, 36.1393694]
}}
,
{"type": "Feature", 
 "properties": {
"rentrak_id": "7961", "name": "Park 9", "address": "1100 Pine St, Paso Robles, CA"},
"geometry": {
"type": "Point",
"coordinates": [-120.6884836, 35.6256411]
}}
,
{"type": "Feature", 
 "properties": {
"rentrak_id": "8793", "name": "Cameo Cinema", "address": "1340 Main St, Saint Helena, CA"},
"geometry": {
"type": "Point",
"coordinates": [-122.4693803, 38.5049215]
}}
,
{"type": "Feature", 
 "properties": {
"rentrak_id": "8819", "name": "Camino Real 6", "address": "7040 Market Place Dr, Goleta, CA"},
"geometry": {
"type": "Point",
"coordinates": [-119.8728424, 34.4295584]
}}
,
{"type": "Feature", 
 "properties": {
"rentrak_id": "4838", "name": "Palo Alto Square 2", "address": "3000 El Camino Real, Palo Alto, CA"},
"geometry": {
"type": "Point",
"coordinates": [-122.1420144, 37.422395]
}}
,
{"type": "Feature", 
 "properties": {
"rentrak_id": "4840", "name": "Castro", "address": "429 Castro St, San Francisco, CA"},
"geometry": {
"type": "Point",
"coordinates": [-122.434696, 37.762013]
}}
,
{"type": "Feature", 
 "properties": {
"rentrak_id": "4850", "name": "Bridge", "address": "3010 Geary Blvd, San Francisco, CA"},
"geometry": {
"type": "Point",
"coordinates": [-122.4512404, 37.7821085]
}}
,
{"type": "Feature", 
 "properties": {
"rentrak_id": "4852", "name": "Clay", "address": "2261 Fillmore St, San Francisco, CA"},
"geometry": {
"type": "Point",
"coordinates": [-122.43448, 37.790456]
}}
,
{"type": "Feature", 
 "properties": {
"rentrak_id": "4858", "name": "Opera Plaza 4", "address": "501 Van Ness Ave, San Francisco, CA"},
"geometry": {
"type": "Point",
"coordinates": [-122.420689, 37.78022199999999]
}}
,
{"type": "Feature", 
 "properties": {
"rentrak_id": "4867", "name": "Davis Varsity", "address": "616 2nd St., Davis, CA"},
"geometry": {
"type": "Point",
"coordinates": [-121.740313, 38.543005]
}}
,
{"type": "Feature", 
 "properties": {
"rentrak_id": "4869", "name": "Lighthouse 4", "address": "525 Lighthouse Ave, Pacific Grove, CA"},
"geometry": {
"type": "Point",
"coordinates": [-121.916357, 36.620211]
}}
,
{"type": "Feature", 
 "properties": {
"rentrak_id": "4871", "name": "Ramona Main Stage", "address": "626 Main St, Ramona, CA"},
"geometry": {
"type": "Point",
"coordinates": [-116.862494, 33.044979]
}}
,
{"type": "Feature", 
 "properties": {
"rentrak_id": "6096", "name": "El Campanil Theatre", "address": "602 W 2nd St, Antioch, CA"},
"geometry": {
"type": "Point",
"coordinates": [-121.813994, 38.017201]
}}
,
{"type": "Feature", 
 "properties": {
"rentrak_id": "6117", "name": "3rd Street Cinemas 6", "address": "620 3rd St, Santa Rosa, CA"},
"geometry": {
"type": "Point",
"coordinates": [-122.712164, 38.43966]
}}
,
{"type": "Feature", 
 "properties": {
"rentrak_id": "5357", "name": "Guild", "address": "949 El Camino Real, Menlo Park, CA"},
"geometry": {
"type": "Point",
"coordinates": [-122.181199, 37.45254]
}}
,
{"type": "Feature", 
 "properties": {
"rentrak_id": "5360", "name": "Tiburon Playhouse 3", "address": "40 Main St, Tiburon, CA"},
"geometry": {
"type": "Point",
"coordinates": [-122.4569229, 37.8731166]
}}
,
{"type": "Feature", 
 "properties": {
"rentrak_id": "5367", "name": "Crow Canyon 6", "address": "2525 San Ramon Valley Blvd, San Ramon, CA"},
"geometry": {
"type": "Point",
"coordinates": [-121.9751823, 37.772861]
}}
,
{"type": "Feature", 
 "properties": {
"rentrak_id": "8595", "name": "Valley Plaza 16", "address": "2000 Wible Rd, Bakersfield, CA"},
"geometry": {
"type": "Point",
"coordinates": [-119.0365972, 35.3354504]
}}
,
{"type": "Feature", 
 "properties": {
"rentrak_id": "8596", "name": "Paradise 7", "address": "6701 Clark Rd, Paradise, CA"},
"geometry": {
"type": "Point",
"coordinates": [-121.590839, 39.778866]
}}
,
{"type": "Feature", 
 "properties": {
"rentrak_id": "7573", "name": "ArcLight Beach Cities", "address": "831 S Nash St, El Segundo, CA"},
"geometry": {
"type": "Point",
"coordinates": [-118.388983, 33.9034626]
}}
,
{"type": "Feature", 
 "properties": {
"rentrak_id": "4648", "name": "Sacramento 6 DI", "address": "9616 Oates Dr, Sacramento, CA"},
"geometry": {
"type": "Point",
"coordinates": [-121.3394409, 38.5663668]
}}
,
{"type": "Feature", 
 "properties": {
"rentrak_id": "9236", "name": "Fair Oaks", "address": "1007 Grand Ave, Arroyo Grande, CA"},
"geometry": {
"type": "Point",
"coordinates": [-120.5933424, 35.1183281]
}}
,
{"type": "Feature", 
 "properties": {
"rentrak_id": "7232", "name": "Santa Cruz 9", "address": "1405 Pacific Ave, Santa Cruz, CA"},
"geometry": {
"type": "Point",
"coordinates": [-122.0266587, 36.9749163]
}}
,
{"type": "Feature", 
 "properties": {
"rentrak_id": "8668", "name": "Natomas Marketplace Stadium 16 & RPX", "address": "3561 Truxel Rd, Sacramento, CA"},
"geometry": {
"type": "Point",
"coordinates": [-121.5030597, 38.6344629]
}}
,
{"type": "Feature", 
 "properties": {
"rentrak_id": "7726", "name": "Cal Oaks 17", "address": "41090 California Oaks Rd, Murrieta, CA"},
"geometry": {
"type": "Point",
"coordinates": [-117.202514, 33.563777]
}}
,
{"type": "Feature", 
 "properties": {
"rentrak_id": "7537", "name": "West Covina Stadium 18", "address": "265 S Glendora Ave, West Covina, CA"},
"geometry": {
"type": "Point",
"coordinates": [-117.923442, 34.070261]
}}
,
{"type": "Feature", 
 "properties": {
"rentrak_id": "7328", "name": "Salinas Northridge 14", "address": "350 Northridge Shopping Ctr, Salinas, CA"},
"geometry": {
"type": "Point",
"coordinates": [-121.660431, 36.715671]
}}
,
{"type": "Feature", 
 "properties": {
"rentrak_id": "7406", "name": "Redding 14 + XD", "address": "980 Old Alturas Rd, Redding, CA"},
"geometry": {
"type": "Point",
"coordinates": [-122.347459, 40.58894799999999]
}}
,
{"type": "Feature", 
 "properties": {
"rentrak_id": "4926", "name": "Rolling Hills 20", "address": "2591 Airport Dr, Torrance, CA"},
"geometry": {
"type": "Point",
"coordinates": [-118.3285053, 33.7922264]
}}
,
{"type": "Feature", 
 "properties": {
"rentrak_id": "5859", "name": "Promenade Stadium 13", "address": "550 Deep Valley Dr, Rolling Hills Estates, CA"},
"geometry": {
"type": "Point",
"coordinates": [-118.3733576, 33.7721263]
}}
,
{"type": "Feature", 
 "properties": {
"rentrak_id": "8466", "name": "Northridge Fashion Stadium", "address": "9400 Shirley Ave, Northridge, CA"},
"geometry": {
"type": "Point",
"coordinates": [-118.5575621, 34.2401963]
}}
,
{"type": "Feature", 
 "properties": {
"rentrak_id": "5878", "name": "One Colorado Cinemas", "address": "42 Miller Aly, Pasadena, CA"},
"geometry": {
"type": "Point",
"coordinates": [-118.1515938, 34.1466903]
}}
,
{"type": "Feature", 
 "properties": {
"rentrak_id": "6610", "name": "El Monte 8", "address": "10661 Valley Blvd, El Monte, CA"},
"geometry": {
"type": "Point",
"coordinates": [-118.0391346, 34.0775981]
}}
,
{"type": "Feature", 
 "properties": {
"rentrak_id": "943901", "name": "Victoria Gardens 12", "address": "12600 N Main St, Rancho Cucamonga, CA"},
"geometry": {
"type": "Point",
"coordinates": [-117.6198573, 34.0931684]
}}
,
{"type": "Feature", 
 "properties": {
"rentrak_id": "6660", "name": "Digiplex River Village 6 Cinema", "address": "5256 S Mission Rd, Bonsall, CA"},
"geometry": {
"type": "Point",
"coordinates": [-117.222147, 33.295095]
}}
,
{"type": "Feature", 
 "properties": {
"rentrak_id": "7030", "name": "Historic Hemet Theater", "address": "216 E Florida Ave, Hemet, CA"},
"geometry": {
"type": "Point",
"coordinates": [-116.9702915, 33.7475582]
}}
,
{"type": "Feature", 
 "properties": {
"rentrak_id": "7015", "name": "Chabot", "address": "2853 Castro Valley Blvd, Castro Valley, CA"},
"geometry": {
"type": "Point",
"coordinates": [-122.0831496, 37.6950444]
}}
,
{"type": "Feature", 
 "properties": {
"rentrak_id": "7036", "name": "Westlake Village Twin", "address": "4711 Lakeview Canyon Rd, Westlake Village, CA"},
"geometry": {
"type": "Point",
"coordinates": [-118.8191826, 34.1483054]
}}
,
{"type": "Feature", 
 "properties": {
"rentrak_id": "6606", "name": "Cinepolis Del Mar 8", "address": "12905 El Camino Real, San Diego, CA"},
"geometry": {
"type": "Point",
"coordinates": [-117.2323565, 32.9522773]
}}
,
{"type": "Feature", 
 "properties": {
"rentrak_id": "6669", "name": "Sacramento Downtown Plaza 7", "address": "445 Downtown Plz, Sacramento, CA"},
"geometry": {
"type": "Point",
"coordinates": [-121.5015596, 38.580321]
}}
,
{"type": "Feature", 
 "properties": {
"rentrak_id": "7799", "name": "Orange Stadium Promenade 25 + XD", "address": "1701 W Katella Ave, Orange, CA"},
"geometry": {
"type": "Point",
"coordinates": [-117.8703511, 33.8088893]
}}
,
{"type": "Feature", 
 "properties": {
"rentrak_id": "4977", "name": "Fullerton 20", "address": "1001 S Lemon St, Fullerton, CA"},
"geometry": {
"type": "Point",
"coordinates": [-117.9201516, 33.8619027]
}}
,
{"type": "Feature", 
 "properties": {
"rentrak_id": "6015", "name": "Triangle Square Cinemas", "address": "1870 Harbor Blvd, Costa Mesa, CA"},
"geometry": {
"type": "Point",
"coordinates": [-117.9186383, 33.6418405]
}}
,
{"type": "Feature", 
 "properties": {
"rentrak_id": "6658", "name": "Cinepolis Laguna Niguel (Re 6/1)", "address": "32401 Golden Lantern St, Laguna Niguel, CA"},
"geometry": {
"type": "Point",
"coordinates": [-117.6983641, 33.4920933]
}}
,
{"type": "Feature", 
 "properties": {
"rentrak_id": "8358", "name": "Ventura Downtown 10", "address": "555 E Main St, Ventura, CA"},
"geometry": {
"type": "Point",
"coordinates": [-119.2923318, 34.28106]
}}
,
{"type": "Feature", 
 "properties": {
"rentrak_id": "5398", "name": "Buenaventura 6", "address": "1440 Eastman Ave, Ventura, CA"},
"geometry": {
"type": "Point",
"coordinates": [-119.2298526, 34.2597846]
}}
,
{"type": "Feature", 
 "properties": {
"rentrak_id": "5539", "name": "Music Hall 3", "address": "9036 Wilshire Blvd, Beverly Hills, CA"},
"geometry": {
"type": "Point",
"coordinates": [-118.3889729, 34.0667836]
}}
,
{"type": "Feature", 
 "properties": {
"rentrak_id": "9092", "name": "Sonora Stadium 10", "address": "901 Sanguinetti Rd, Sonora, CA"},
"geometry": {
"type": "Point",
"coordinates": [-120.3665422, 37.9736083]
}}
,
{"type": "Feature", 
 "properties": {
"rentrak_id": "4714", "name": "Fox Cinema Banning", "address": "60 W Ramsey St, Banning, CA"},
"geometry": {
"type": "Point",
"coordinates": [-116.877424, 33.9252314]
}}
,
{"type": "Feature", 
 "properties": {
"rentrak_id": "5420", "name": "Digiplex Mission Marketplace", "address": "431 College Blvd, Oceanside, CA"},
"geometry": {
"type": "Point",
"coordinates": [-117.293983, 33.244922]
}}
,
{"type": "Feature", 
 "properties": {
"rentrak_id": "904109", "name": "Sacramento Greenback 16 + XD", "address": "6233 Garfield Ave, Sacramento, CA"},
"geometry": {
"type": "Point",
"coordinates": [-121.3353252, 38.6802669]
}}
,
{"type": "Feature", 
 "properties": {
"rentrak_id": "904127", "name": "Buena Park Metroplex 18", "address": "8290 La Palma Ave, Buena Park, CA"},
"geometry": {
"type": "Point",
"coordinates": [-117.9894679, 33.843607]
}}
,
{"type": "Feature", 
 "properties": {
"rentrak_id": "6535", "name": "Montebello 10", "address": "1475 N Montebello Blvd, Montebello, CA"},
"geometry": {
"type": "Point",
"coordinates": [-118.0925933, 34.0339028]
}}
,
{"type": "Feature", 
 "properties": {
"rentrak_id": "4884", "name": "Santee Twin DI", "address": "10990 N Woodside Ave, Santee, CA"},
"geometry": {
"type": "Point",
"coordinates": [-116.95911, 32.84793]
}}
,
{"type": "Feature", 
 "properties": {
"rentrak_id": "9245", "name": "Trinity", "address": "310 North Main Street, Weaverville, CA"},
"geometry": {
"type": "Point",
"coordinates": [-122.9440305, 40.7354642]
}}
,
{"type": "Feature", 
 "properties": {
"rentrak_id": "7540", "name": "Cinepolis Westlake Village 8 (9/21)", "address": "180 Promenade Way, Westlake Village, CA"},
"geometry": {
"type": "Point",
"coordinates": [-118.8230419, 34.1582558]
}}
,
{"type": "Feature", 
 "properties": {
"rentrak_id": "9041", "name": "Fortuna 6", "address": "1241 Main St, Fortuna, CA"},
"geometry": {
"type": "Point",
"coordinates": [-124.1537623, 40.59790810000001]
}}
,
{"type": "Feature", 
 "properties": {
"rentrak_id": "7587", "name": "University Village 10", "address": "1201 University Ave, Riverside, CA"},
"geometry": {
"type": "Point",
"coordinates": [-117.3373978, 33.9766466]
}}
,
{"type": "Feature", 
 "properties": {
"rentrak_id": "6755", "name": "San Rafael Regency 6", "address": "280 Smith Ranch Rd, San Rafael, CA"},
"geometry": {
"type": "Point",
"coordinates": [-122.532217, 38.018823]
}}
,
{"type": "Feature", 
 "properties": {
"rentrak_id": "4634", "name": "Larkspur 4", "address": "500 Larkspur Landing Cir, Larkspur, CA"},
"geometry": {
"type": "Point",
"coordinates": [-122.51189, 37.947567]
}}
,
{"type": "Feature", 
 "properties": {
"rentrak_id": "4635", "name": "Kabuki Cinema", "address": "1881 Post St, San Francisco, CA"},
"geometry": {
"type": "Point",
"coordinates": [-122.432292, 37.784921]
}}
,
{"type": "Feature", 
 "properties": {
"rentrak_id": "4957", "name": "(Temp Closed)", "address": "216 N Brand Blvd, Glendale, CA"},
"geometry": {
"type": "Point",
"coordinates": [-118.2547162, 34.1488111]
}}
,
{"type": "Feature", 
 "properties": {
"rentrak_id": "6604", "name": "Vine Twin", "address": "1722 1st St, Livermore, CA"},
"geometry": {
"type": "Point",
"coordinates": [-121.7747733, 37.679972]
}}
,
{"type": "Feature", 
 "properties": {
"rentrak_id": "4856", "name": "Lumiere 3", "address": "1572 California St, San Francisco, CA"},
"geometry": {
"type": "Point",
"coordinates": [-122.4201634, 37.7906813]
}}
,
{"type": "Feature", 
 "properties": {
"rentrak_id": "7424", "name": "Metro 8", "address": "81725 Us Highway 111, Indio, CA"},
"geometry": {
"type": "Point",
"coordinates": [-116.2365533, 33.7085889]
}}
,
{"type": "Feature", 
 "properties": {
"rentrak_id": "7556", "name": "Ontario Mills 30 with ETX", "address": "4549 Mills Cir, Ontario, CA"},
"geometry": {
"type": "Point",
"coordinates": [-117.5526472, 34.0746063]
}}
,
{"type": "Feature", 
 "properties": {
"rentrak_id": "4948", "name": "Newport 6", "address": "300 Newport Center Dr, Newport Beach, CA"},
"geometry": {
"type": "Point",
"coordinates": [-117.8733264, 33.612543]
}}
,
{"type": "Feature", 
 "properties": {
"rentrak_id": "4986", "name": "Galleria South Bay 16", "address": "1523 Kingsdale Ave, Redondo Beach, CA"},
"geometry": {
"type": "Point",
"coordinates": [-118.3563144, 33.8681002]
}}
,
{"type": "Feature", 
 "properties": {
"rentrak_id": "4989", "name": "Regent", "address": "1045 Broxton Ave, Los Angeles, CA"},
"geometry": {
"type": "Point",
"coordinates": [-118.4466812, 34.0615563]
}}
,
{"type": "Feature", 
 "properties": {
"rentrak_id": "4994", "name": "Village", "address": "961 Broxton Ave, Los Angeles, CA"},
"geometry": {
"type": "Point",
"coordinates": [-118.4472783, 34.0626536]
}}
,
{"type": "Feature", 
 "properties": {
"rentrak_id": "4660", "name": "Mountain View Cinema 16", "address": "1500 N Shoreline Blvd, Mountain View, CA"},
"geometry": {
"type": "Point",
"coordinates": [-122.0809276, 37.4146543]
}}
,
{"type": "Feature", 
 "properties": {
"rentrak_id": "4668", "name": "Sunrise 4", "address": "5926 Sunrise Mall, Citrus Heights, CA"},
"geometry": {
"type": "Point",
"coordinates": [-121.2709849, 38.674757]
}}
,
{"type": "Feature", 
 "properties": {
"rentrak_id": "4673", "name": "Stonestown Twin 2", "address": "501 Buckingham Way, San Francisco, CA"},
"geometry": {
"type": "Point",
"coordinates": [-122.4788223, 37.7298186]
}}
,
{"type": "Feature", 
 "properties": {
"rentrak_id": "4677", "name": "Capitol 6 DI", "address": "3630 Hillcap Ave, San Jose, CA"},
"geometry": {
"type": "Point",
"coordinates": [-121.840465, 37.2801231]
}}
,
{"type": "Feature", 
 "properties": {
"rentrak_id": "5750", "name": "Terra Vista 6", "address": "10701 Town Center Dr, Rancho Cucamonga, CA"},
"geometry": {
"type": "Point",
"coordinates": [-117.571717, 34.1099382]
}}
,
{"type": "Feature", 
 "properties": {
"rentrak_id": "7712", "name": "Premiere 10 Hollister", "address": "641 Mccray St, Hollister, CA"},
"geometry": {
"type": "Point",
"coordinates": [-121.396585, 36.8497114]
}}
,
{"type": "Feature", 
 "properties": {
"rentrak_id": "902151", "name": "Bishop Twin", "address": "237 N Main St, Bishop, CA"},
"geometry": {
"type": "Point",
"coordinates": [-118.3954102, 37.3624708]
}}
,
{"type": "Feature", 
 "properties": {
"rentrak_id": "7959", "name": "Minaret Twin", "address": "437 Old Mammoth Rd, Mammoth Lakes, CA"},
"geometry": {
"type": "Point",
"coordinates": [-118.964295, 37.639553]
}}
,
{"type": "Feature", 
 "properties": {
"rentrak_id": "8778", "name": "New Delta Twin", "address": "641 First St., Brentwood, CA"},
"geometry": {
"type": "Point",
"coordinates": [-121.6944448, 37.932169]
}}
,
{"type": "Feature", 
 "properties": {
"rentrak_id": "6657", "name": "Santa Maria 10", "address": "1521 S Bradley Rd, Santa Maria, CA"},
"geometry": {
"type": "Point",
"coordinates": [-120.420042, 34.933669]
}}
,
{"type": "Feature", 
 "properties": {
"rentrak_id": "990791", "name": "Century City 15 with IMAX & ETX", "address": "10250 Santa Monica Blvd S, Century City, CA"},
"geometry": {
"type": "Point",
"coordinates": [-118.4201206, 34.0598642]
}}
,
{"type": "Feature", 
 "properties": {
"rentrak_id": "8875", "name": "The New Parkway Theater", "address": "474 24th St, Oakland, CA"},
"geometry": {
"type": "Point",
"coordinates": [-122.267453, 37.813955]
}}
,
{"type": "Feature", 
 "properties": {
"rentrak_id": "9219", "name": "Lodi Stadium 12", "address": "109 N School St, Lodi, CA"},
"geometry": {
"type": "Point",
"coordinates": [-121.2746527, 38.1356685]
}}
,
{"type": "Feature", 
 "properties": {
"rentrak_id": "8993", "name": "Bal Theatre", "address": "14808 E 14th St, San Leandro, CA"},
"geometry": {
"type": "Point",
"coordinates": [-122.1330014, 37.7086729]
}}
,
{"type": "Feature", 
 "properties": {
"rentrak_id": "7210", "name": "Art Theatre of Long Beach", "address": "2025 E 4th St, Long Beach, CA"},
"geometry": {
"type": "Point",
"coordinates": [-118.166965, 33.77198200000001]
}}
,
{"type": "Feature", 
 "properties": {
"rentrak_id": "902929", "name": "Garberville Theatre", "address": "766 Redwood Dr, Garberville, CA"},
"geometry": {
"type": "Point",
"coordinates": [-123.795744, 40.100876]
}}
,
{"type": "Feature", 
 "properties": {
"rentrak_id": "8863", "name": "Roxy Stadium 14", "address": "85 Santa Rosa Ave, Santa Rosa, CA"},
"geometry": {
"type": "Point",
"coordinates": [-122.713037, 38.438552]
}}
,
{"type": "Feature", 
 "properties": {
"rentrak_id": "9128", "name": "San Leandro Bayfair 16", "address": "Intersection of 155th Ave &amp; East 14th St, San Leandro, CA"},
"geometry": {
"type": "Point",
"coordinates": [-118.4054577, 34.8044125]
}}
,
{"type": "Feature", 
 "properties": {
"rentrak_id": "904088", "name": "San Mateo 12", "address": "320 2nd Ave, San Mateo, CA"},
"geometry": {
"type": "Point",
"coordinates": [-122.322101, 37.566118]
}}
,
{"type": "Feature", 
 "properties": {
"rentrak_id": "4777", "name": "Nickelodeon 4", "address": "210 Lincoln St, Santa Cruz, CA"},
"geometry": {
"type": "Point",
"coordinates": [-122.0275554, 36.9726514]
}}
,
{"type": "Feature", 
 "properties": {
"rentrak_id": "904147", "name": "(Temp Closed)", "address": "385 W Aten Rd., El Centro, CA"},
"geometry": {
"type": "Point",
"coordinates": [-115.568969, 32.8246072]
}}
,
{"type": "Feature", 
 "properties": {
"rentrak_id": "6659", "name": "Digiplex Creekside Place 10", "address": "13475 Poway Rd, Poway, CA"},
"geometry": {
"type": "Point",
"coordinates": [-117.0397877, 32.9547679]
}}
,
{"type": "Feature", 
 "properties": {
"rentrak_id": "5379", "name": "Ojai Playhouse", "address": "145 E Ojai Ave, Ojai, CA"},
"geometry": {
"type": "Point",
"coordinates": [-119.246106, 34.447499]
}}
,
{"type": "Feature", 
 "properties": {
"rentrak_id": "4580", "name": "El Rey Theatre", "address": "230 W 2nd St, Chico, CA"},
"geometry": {
"type": "Point",
"coordinates": [-121.842111, 39.729588]
}}
,
{"type": "Feature", 
 "properties": {
"rentrak_id": "4644", "name": "San Francisco Empire 3", "address": "85 W Portal Ave, San Francisco, CA"},
"geometry": {
"type": "Point",
"coordinates": [-122.4666405, 37.7398763]
}}
,
{"type": "Feature", 
 "properties": {
"rentrak_id": "4788", "name": "Tower 3", "address": "2508 Land Park Dr, Sacramento, CA"},
"geometry": {
"type": "Point",
"coordinates": [-121.4935232, 38.5615874]
}}
,
{"type": "Feature", 
 "properties": {
"rentrak_id": "4829", "name": "Sausalito Marin 3", "address": "101 Caledonia St, Sausalito, CA"},
"geometry": {
"type": "Point",
"coordinates": [-122.485716, 37.858542]
}}
,
{"type": "Feature", 
 "properties": {
"rentrak_id": "7759", "name": "Sutton Twin", "address": "399 Sutton Way, Grass Valley, CA"},
"geometry": {
"type": "Point",
"coordinates": [-121.0357774, 39.2314032]
}}
,
{"type": "Feature", 
 "properties": {
"rentrak_id": "990785", "name": "Brentwood 14 with IMAX", "address": "2525 Sand Creek Rd., Brentwood, CA"},
"geometry": {
"type": "Point",
"coordinates": [-121.7396138, 37.943603]
}}
,
{"type": "Feature", 
 "properties": {
"rentrak_id": "4864", "name": "Mill Valley Sequoia 2", "address": "25 Throckmorton Ave, Mill Valley, CA"},
"geometry": {
"type": "Point",
"coordinates": [-122.546956, 37.9065228]
}}
,
{"type": "Feature", 
 "properties": {
"rentrak_id": "7205", "name": "Avalon Theatre", "address": "1 Casino Way, Avalon, CA"},
"geometry": {
"type": "Point",
"coordinates": [-118.3275076, 33.3470165]
}}
,
{"type": "Feature", 
 "properties": {
"rentrak_id": "4888", "name": "Nuart", "address": "11272 Santa Monica Blvd, Los Angeles, CA"},
"geometry": {
"type": "Point",
"coordinates": [-118.4479073, 34.0463138]
}}
,
{"type": "Feature", 
 "properties": {
"rentrak_id": "901084", "name": "UltraStar Mission Valley 7", "address": "7510 Hazard Center Dr, San Diego, CA"},
"geometry": {
"type": "Point",
"coordinates": [-117.158584, 32.770596]
}}
,
{"type": "Feature", 
 "properties": {
"rentrak_id": "6560", "name": "Riverfront Twin", "address": "155 River St, Santa Cruz, CA"},
"geometry": {
"type": "Point",
"coordinates": [-122.0266166, 36.9785861]
}}
,
{"type": "Feature", 
 "properties": {
"rentrak_id": "4789", "name": "Bluelight Cinemas 5", "address": "21275 Stevens Creek Blvd, Cupertino, CA"},
"geometry": {
"type": "Point",
"coordinates": [-122.0485336, 37.3237956]
}}
,
{"type": "Feature", 
 "properties": {
"rentrak_id": "4851", "name": "California 3", "address": "2113 Kittredge St, Berkeley, CA"},
"geometry": {
"type": "Point",
"coordinates": [-122.2671954, 37.8687432]
}}
,
{"type": "Feature", 
 "properties": {
"rentrak_id": "7134", "name": "Metro 12", "address": "1599 S San Jacinto Ave, San Jacinto, CA"},
"geometry": {
"type": "Point",
"coordinates": [-116.9552224, 33.7718393]
}}
,
{"type": "Feature", 
 "properties": {
"rentrak_id": "7487", "name": "Elk Grove Laguna 16", "address": "9349 Big Horn Blvd, Elk Grove, CA"},
"geometry": {
"type": "Point",
"coordinates": [-121.4044311, 38.4182715]
}}
,
{"type": "Feature", 
 "properties": {
"rentrak_id": "4996", "name": "Bruin", "address": "948 Broxton Ave, Los Angeles, CA"},
"geometry": {
"type": "Point",
"coordinates": [-118.4468697, 34.062726]
}}
,
{"type": "Feature", 
 "properties": {
"rentrak_id": "902943", "name": "Pageant Theatre", "address": "351 E 6th St, Chico, CA"},
"geometry": {
"type": "Point",
"coordinates": [-121.834919, 39.728837]
}}
,
{"type": "Feature", 
 "properties": {
"rentrak_id": "902993", "name": "Fall River Theatre", "address": "43118 Hwy 299, Fall River Mills, CA"},
"geometry": {
"type": "Point",
"coordinates": [-121.439031, 41.00432]
}}
,
{"type": "Feature", 
 "properties": {
"rentrak_id": "7393", "name": "Holiday 8", "address": "6262 West Ln, Stockton, CA"},
"geometry": {
"type": "Point",
"coordinates": [-121.293766, 38.012442]
}}
,
{"type": "Feature", 
 "properties": {
"rentrak_id": "902173", "name": "Smith's Ranch DI", "address": "4584 Adobe Rd, Twentynine Palms, CA"},
"geometry": {
"type": "Point",
"coordinates": [-116.057847, 34.169759]
}}
,
{"type": "Feature", 
 "properties": {
"rentrak_id": "4879", "name": "Plaza De Oro 2", "address": "371 Hitchcock Way, Santa Barbara, CA"},
"geometry": {
"type": "Point",
"coordinates": [-119.7457795, 34.4340904]
}}
,
{"type": "Feature", 
 "properties": {
"rentrak_id": "4907", "name": "Egyptian", "address": "6712 Hollywood Blvd, Hollywood, CA"},
"geometry": {
"type": "Point",
"coordinates": [-118.3366862, 34.1014253]
}}
,
{"type": "Feature", 
 "properties": {
"rentrak_id": "4923", "name": "Valley Plaza 6", "address": "6355 Bellingham Ave, North Hollywood, CA"},
"geometry": {
"type": "Point",
"coordinates": [-118.399155, 34.1860039]
}}
,
{"type": "Feature", 
 "properties": {
"rentrak_id": "4955", "name": "Monica 4", "address": "1332 2nd St, Santa Monica, CA"},
"geometry": {
"type": "Point",
"coordinates": [-118.497987, 34.015229]
}}
,
{"type": "Feature", 
 "properties": {
"rentrak_id": "4802", "name": "Grand Lake 4", "address": "3200 Grand Ave, Oakland, CA"},
"geometry": {
"type": "Point",
"coordinates": [-122.2477366, 37.8114983]
}}
,
{"type": "Feature", 
 "properties": {
"rentrak_id": "9115", "name": "Hollywood Merced 13", "address": "403 W Main St, Merced, CA"},
"geometry": {
"type": "Point",
"coordinates": [-120.481923, 37.301549]
}}
,
{"type": "Feature", 
 "properties": {
"rentrak_id": "8108", "name": "Clear Lake Twin", "address": "3380 Washington St, Clear Lake, CA"},
"geometry": {
"type": "Point",
"coordinates": [-122.6304675, 38.9634771]
}}
,
{"type": "Feature", 
 "properties": {
"rentrak_id": "990793", "name": "East Ridge Mall 15 with IMAX", "address": "2190 Eastridge Loop, San Jose, CA"},
"geometry": {
"type": "Point",
"coordinates": [-121.812621, 37.325856]
}}
,
{"type": "Feature", 
 "properties": {
"rentrak_id": "5545", "name": "Blue Jay 4", "address": "27315 North Bay Road, Blue Jay, CA"},
"geometry": {
"type": "Point",
"coordinates": [-117.207066, 34.247735]
}}
,
{"type": "Feature", 
 "properties": {
"rentrak_id": "4890", "name": "South Coast Village 3", "address": "1561 W Sunflower Ave, Santa Ana, CA"},
"geometry": {
"type": "Point",
"coordinates": [-117.8888661, 33.6947278]
}}
,
{"type": "Feature", 
 "properties": {
"rentrak_id": "4952", "name": "Royal", "address": "11523 Santa Monica Blvd, Los Angeles, CA"},
"geometry": {
"type": "Point",
"coordinates": [-118.4528217, 34.0454903]
}}
,
{"type": "Feature", 
 "properties": {
"rentrak_id": "4962", "name": "Brea Plaza 5", "address": "453 S Associated Rd, Brea, CA"},
"geometry": {
"type": "Point",
"coordinates": [-117.882164, 33.912799]
}}
,
{"type": "Feature", 
 "properties": {
"rentrak_id": "4874", "name": "Ridgecrest 8", "address": "1631 Triangle Dr, Ridgecrest, CA"},
"geometry": {
"type": "Point",
"coordinates": [-117.671771, 35.6499529]
}}
,
{"type": "Feature", 
 "properties": {
"rentrak_id": "945901", "name": "Corona Crossing Stadium 18 & RPX", "address": "2650 Tuscany St., Corona, CA"},
"geometry": {
"type": "Point",
"coordinates": [-117.5158136, 33.8226911]
}}
,
{"type": "Feature", 
 "properties": {
"rentrak_id": "991083", "name": "Cinefamily@The Silent Movie Theatre", "address": "611 N Fairfax Ave, Los Angeles, CA"},
"geometry": {
"type": "Point",
"coordinates": [-118.361799, 34.082007]
}}
,
{"type": "Feature", 
 "properties": {
"rentrak_id": "991087", "name": "Walt Disney Studios Main Theatre", "address": "500 South Buena Vista St, Burbank, CA"},
"geometry": {
"type": "Point",
"coordinates": [-118.326829, 34.1557725]
}}
,
{"type": "Feature", 
 "properties": {
"rentrak_id": "991103", "name": "Pacific Film Archive Theater", "address": "2625 Durant Avenue, Berkeley, CA"},
"geometry": {
"type": "Point",
"coordinates": [-122.2565134, 37.8681449]
}}
,
{"type": "Feature", 
 "properties": {
"rentrak_id": "991123", "name": "Tower Theatre", "address": "417 Vernon St, Roseville, CA"},
"geometry": {
"type": "Point",
"coordinates": [-121.2854499, 38.7478561]
}}
,
{"type": "Feature", 
 "properties": {
"rentrak_id": "991130", "name": "Santa Barbara DI", "address": "907 S. Kellogg, Goleta, CA"},
"geometry": {
"type": "Point",
"coordinates": [-119.8276907, 34.4258817]
}}
,
{"type": "Feature", 
 "properties": {
"rentrak_id": "905657", "name": "California Science Center IMAX Theater", "address": "700 State Dr, Los Angeles, CA"},
"geometry": {
"type": "Point",
"coordinates": [-118.2860935, 34.0153081]
}}
,
{"type": "Feature", 
 "properties": {
"rentrak_id": "990252", "name": "Ontario Palace Stadium 22 + IMAX", "address": "4843 E 4th St, Ontario, CA"},
"geometry": {
"type": "Point",
"coordinates": [-117.5748055, 34.07727]
}}
,
{"type": "Feature", 
 "properties": {
"rentrak_id": "978901", "name": "San Diego Natural History Museum - Kaplan Theater", "address": "1788 El Prado, San Diego, CA"},
"geometry": {
"type": "Point",
"coordinates": [-117.1474595, 32.7321106]
}}
,
{"type": "Feature", 
 "properties": {
"rentrak_id": "990370", "name": "Livermore Cinemas", "address": "2490 First St., Livermore, CA"},
"geometry": {
"type": "Point",
"coordinates": [-121.767427, 37.683583]
}}
,
{"type": "Feature", 
 "properties": {
"rentrak_id": "990879", "name": "Santa Anita 16 with IMAX", "address": "400 S Baldwin Ave, Arcadia, CA"},
"geometry": {
"type": "Point",
"coordinates": [-118.0522735, 34.1320311]
}}
,
{"type": "Feature", 
 "properties": {
"rentrak_id": "991152", "name": "Bob Hope Theatre", "address": "242 East Main St, Stockton, CA"},
"geometry": {
"type": "Point",
"coordinates": [-121.2875666, 37.9529175]
}}
,
{"type": "Feature", 
 "properties": {
"rentrak_id": "991168", "name": "Fox Theater Pomona", "address": "301 South Garey Ave, Pomona, CA"},
"geometry": {
"type": "Point",
"coordinates": [-117.7504585, 34.0566961]
}}
,
{"type": "Feature", 
 "properties": {
"rentrak_id": "991172", "name": "Blue Oaks Century 16 + XD", "address": "6692 Lone Tree Blvd, Rocklin, CA"},
"geometry": {
"type": "Point",
"coordinates": [-121.293662, 38.7970843]
}}
,
{"type": "Feature", 
 "properties": {
"rentrak_id": "7198", "name": "Village 5", "address": "40789 Village Dr, Big Bear Lake, CA"},
"geometry": {
"type": "Point",
"coordinates": [-116.912046, 34.239624]
}}
,
{"type": "Feature", 
 "properties": {
"rentrak_id": "8238", "name": "Sunset DI", "address": "255 Elks Ln, San Luis Obispo, CA"},
"geometry": {
"type": "Point",
"coordinates": [-120.671146, 35.258958]
}}
,
{"type": "Feature", 
 "properties": {
"rentrak_id": "8615", "name": "Metreon 16 with IMAX & ETX", "address": "135 4th St, San Francisco, CA"},
"geometry": {
"type": "Point",
"coordinates": [-122.4033115, 37.784087]
}}
,
{"type": "Feature", 
 "properties": {
"rentrak_id": "4937", "name": "North Hollywood 8", "address": "12827 Victory Blvd, North Hollywood, CA"},
"geometry": {
"type": "Point",
"coordinates": [-118.412752, 34.187053]
}}
,
{"type": "Feature", 
 "properties": {
"rentrak_id": "7930", "name": "Movies 10", "address": "34491 Date Palm Dr, Cathedral City, CA"},
"geometry": {
"type": "Point",
"coordinates": [-116.4606753, 33.7984232]
}}
,
{"type": "Feature", 
 "properties": {
"rentrak_id": "7277", "name": "State Theatre", "address": "985 Lincoln Way, Auburn, CA"},
"geometry": {
"type": "Point",
"coordinates": [-121.0714944, 38.8979056]
}}
,
{"type": "Feature", 
 "properties": {
"rentrak_id": "5422", "name": "Marina Pacifica 12", "address": "6346 E Pacific Coast Hwy, Long Beach, CA"},
"geometry": {
"type": "Point",
"coordinates": [-118.1135077, 33.7601303]
}}
,
{"type": "Feature", 
 "properties": {
"rentrak_id": "905670", "name": "Reuben H. Fleet Science Center", "address": "1875 El Prado, San Diego, CA"},
"geometry": {
"type": "Point",
"coordinates": [-117.1469444, 32.7307684]
}}
,
{"type": "Feature", 
 "properties": {
"rentrak_id": "989906", "name": "Maya Cinema 14", "address": "153 Main St, Salinas, CA"},
"geometry": {
"type": "Point",
"coordinates": [-121.6552356, 36.6763161]
}}
,
{"type": "Feature", 
 "properties": {
"rentrak_id": "991181", "name": "Birch North Park Theatre", "address": "2891 University Avenue, San Diego, CA"},
"geometry": {
"type": "Point",
"coordinates": [-117.1312438, 32.7482587]
}}
,
{"type": "Feature", 
 "properties": {
"rentrak_id": "5687", "name": "Cinema City", "address": "5635 E La Palma Ave, Anaheim Hills, CA"},
"geometry": {
"type": "Point",
"coordinates": [-117.791939, 33.861119]
}}
,
{"type": "Feature", 
 "properties": {
"rentrak_id": "4935", "name": "Riviera", "address": "2044 Alameda Padre Serra, Santa Barbara, CA"},
"geometry": {
"type": "Point",
"coordinates": [-119.706413, 34.4392702]
}}
,
{"type": "Feature", 
 "properties": {
"rentrak_id": "8700", "name": "Tinseltown 14", "address": "801 East Ave, Chico, CA"},
"geometry": {
"type": "Point",
"coordinates": [-121.8466344, 39.7607433]
}}
,
{"type": "Feature", 
 "properties": {
"rentrak_id": "4650", "name": "Modesto Stadium 10", "address": "3969 Mchenry Ave, Modesto, CA"},
"geometry": {
"type": "Point",
"coordinates": [-120.995704, 37.6959159]
}}
,
{"type": "Feature", 
 "properties": {
"rentrak_id": "990025", "name": "Plaza Cinema 14", "address": "255 W 5th St, Oxnard, CA"},
"geometry": {
"type": "Point",
"coordinates": [-119.179257, 34.198382]
}}
,
{"type": "Feature", 
 "properties": {
"rentrak_id": "990639", "name": "Empress", "address": "330 Virginia St, Vallejo, CA"},
"geometry": {
"type": "Point",
"coordinates": [-122.257147, 38.102407]
}}
,
{"type": "Feature", 
 "properties": {
"rentrak_id": "990562", "name": "Tyler Galleria 16 with IMAX", "address": "3775 Tyler Ave, Riverside, CA"},
"geometry": {
"type": "Point",
"coordinates": [-117.457481, 33.9124308]
}}
,
{"type": "Feature", 
 "properties": {
"rentrak_id": "990563", "name": "Otay Ranch 12", "address": "2015 Birch Road, Chula Vista, CA"},
"geometry": {
"type": "Point",
"coordinates": [-116.9705744, 32.6236119]
}}
,
{"type": "Feature", 
 "properties": {
"rentrak_id": "990759", "name": "Glendora 12 with IMAX", "address": "1337 E. Gladstone Street, Glendora, CA"},
"geometry": {
"type": "Point",
"coordinates": [-117.836118, 34.117098]
}}
,
{"type": "Feature", 
 "properties": {
"rentrak_id": "7286", "name": "Sterling 6", "address": "2374 Sterling Ave, San Bernardino, CA"},
"geometry": {
"type": "Point",
"coordinates": [-117.2436863, 34.1370587]
}}
,
{"type": "Feature", 
 "properties": {
"rentrak_id": "5423", "name": "Met 5", "address": "40015 Hwy 49, Oakhurst, CA"},
"geometry": {
"type": "Point",
"coordinates": [-119.6590033, 37.3328443]
}}
,
{"type": "Feature", 
 "properties": {
"rentrak_id": "7753", "name": "San Clemente 6", "address": "635 Camino De Los Mares, San Clemente, CA"},
"geometry": {
"type": "Point",
"coordinates": [-117.6512322, 33.4595022]
}}
,
{"type": "Feature", 
 "properties": {
"rentrak_id": "901014", "name": "Auburn Stadium 10", "address": "500 Nevada St, Auburn, CA"},
"geometry": {
"type": "Point",
"coordinates": [-121.0798798, 38.913612]
}}
,
{"type": "Feature", 
 "properties": {
"rentrak_id": "9301", "name": "Magic", "address": "107 Argall Way, Nevada City, CA"},
"geometry": {
"type": "Point",
"coordinates": [-121.0239466, 39.2525913]
}}
,
{"type": "Feature", 
 "properties": {
"rentrak_id": "4942", "name": "Charter Centre 5", "address": "7822 Warner Ave, Huntington Bch., CA"},
"geometry": {
"type": "Point",
"coordinates": [-117.9916353, 33.715311]
}}
,
{"type": "Feature", 
 "properties": {
"rentrak_id": "990952", "name": "Promenade 16 with IMAX", "address": "21801 Oxnard St, Woodland Hills, CA"},
"geometry": {
"type": "Point",
"coordinates": [-118.6025006, 34.1800498]
}}
,
{"type": "Feature", 
 "properties": {
"rentrak_id": "990954", "name": "South Gate Stadium 20 with IMAX", "address": "8630 Garfield Ave, South Gate, CA"},
"geometry": {
"type": "Point",
"coordinates": [-118.1621017, 33.9521038]
}}
,
{"type": "Feature", 
 "properties": {
"rentrak_id": "990979", "name": "Cupertino Square 16 with IMAX", "address": "10123 N. Wolfe Road, Cupertino, CA"},
"geometry": {
"type": "Point",
"coordinates": [-122.0150134, 37.3268591]
}}
,
{"type": "Feature", 
 "properties": {
"rentrak_id": "990981", "name": "Plaza Bonita 14 with IMAX", "address": "3030 Plaza Bonita Rd, National City, CA"},
"geometry": {
"type": "Point",
"coordinates": [-117.065741, 32.656186]
}}
,
{"type": "Feature", 
 "properties": {
"rentrak_id": "990587", "name": "Eastvale Gateway Stadium 14", "address": "12285 Limonite Ave, Mira Loma, CA"},
"geometry": {
"type": "Point",
"coordinates": [-117.551525, 33.975781]
}}
,
{"type": "Feature", 
 "properties": {
"rentrak_id": "904511", "name": "Almaden Cinema 5", "address": "2306 Almaden Rd, San Jose, CA"},
"geometry": {
"type": "Point",
"coordinates": [-121.878841, 37.291824]
}}
,
{"type": "Feature", 
 "properties": {
"rentrak_id": "904551", "name": "Century Walnut Creek 14 + XD", "address": "1201 Locust St, Walnut Creek, CA"},
"geometry": {
"type": "Point",
"coordinates": [-122.0618327, 37.8964605]
}}
,
{"type": "Feature", 
 "properties": {
"rentrak_id": "7734", "name": "Downey 10", "address": "8200 3rd St, Downey, CA"},
"geometry": {
"type": "Point",
"coordinates": [-118.133302, 33.9422629]
}}
,
{"type": "Feature", 
 "properties": {
"rentrak_id": "902967", "name": "Niles", "address": "127 S Main St, Alturas, CA"},
"geometry": {
"type": "Point",
"coordinates": [-120.542974, 41.483515]
}}
,
{"type": "Feature", 
 "properties": {
"rentrak_id": "990341", "name": "Cinemark 16", "address": "1475 W. Ave P, Palmdale, CA"},
"geometry": {
"type": "Point",
"coordinates": [-118.1585974, 34.6017622]
}}
,
{"type": "Feature", 
 "properties": {
"rentrak_id": "989996", "name": "Janss Marketplace", "address": "255 N Moorpark Rd, Thousand Oaks, CA"},
"geometry": {
"type": "Point",
"coordinates": [-118.8761688, 34.18143980000001]
}}
,
{"type": "Feature", 
 "properties": {
"rentrak_id": "990331", "name": "Sierra Vista Cinemas", "address": "1300 Shaw Avenue, Clovis, CA"},
"geometry": {
"type": "Point",
"coordinates": [-119.6928354, 36.80851190000001]
}}
,
{"type": "Feature", 
 "properties": {
"rentrak_id": "6805", "name": "Granada Hills 9", "address": "16830 Devonshire St, Granada Hills, CA"},
"geometry": {
"type": "Point",
"coordinates": [-118.499082, 34.256773]
}}
,
{"type": "Feature", 
 "properties": {
"rentrak_id": "990271", "name": "Fresno Stadium 21 + IMAX", "address": "7750 N Blackstone Ave, Fresno, CA"},
"geometry": {
"type": "Point",
"coordinates": [-119.7894252, 36.8499197]
}}
,
{"type": "Feature", 
 "properties": {
"rentrak_id": "4637", "name": "Camera 7", "address": "1853 S Bascom Ave, Campbell, CA"},
"geometry": {
"type": "Point",
"coordinates": [-121.9318007, 37.2901341]
}}
,
{"type": "Feature", 
 "properties": {
"rentrak_id": "904731", "name": "Cinemark 14 @ The Pike", "address": "99 S Pine Ave, Long Beach, CA"},
"geometry": {
"type": "Point",
"coordinates": [-118.1933946, 33.7644268]
}}
,
{"type": "Feature", 
 "properties": {
"rentrak_id": "904971", "name": "Mill Creek Cinema", "address": "1575 Betty Ct, Mckinleyville, CA"},
"geometry": {
"type": "Point",
"coordinates": [-124.1045632, 40.9341948]
}}
,
{"type": "Feature", 
 "properties": {
"rentrak_id": "904972", "name": "Arclight Sherman Oaks", "address": "15301 Ventura Blvd, Sherman Oaks, CA"},
"geometry": {
"type": "Point",
"coordinates": [-118.4665976, 34.1540039]
}}
,
{"type": "Feature", 
 "properties": {
"rentrak_id": "4854", "name": "Four Star Twin", "address": "2200 Clement St, San Francisco, CA"},
"geometry": {
"type": "Point",
"coordinates": [-122.4829454, 37.7823559]
}}
,
{"type": "Feature", 
 "properties": {
"rentrak_id": "4857", "name": "Berkeley Oaks Theater", "address": "1875 Solano Ave, Berkeley, CA"},
"geometry": {
"type": "Point",
"coordinates": [-122.2780125, 37.8914584]
}}
,
{"type": "Feature", 
 "properties": {
"rentrak_id": "7229", "name": "San Rafael Northgate 15", "address": "7000 Northgate Drive, San Rafael, CA"},
"geometry": {
"type": "Point",
"coordinates": [-122.5441242, 38.0027803]
}}
,
{"type": "Feature", 
 "properties": {
"rentrak_id": "6946", "name": "La Paloma", "address": "471 S Coast Hwy 101, Encinitas, CA"},
"geometry": {
"type": "Point",
"coordinates": [-117.2936257, 33.046375]
}}
,
{"type": "Feature", 
 "properties": {
"rentrak_id": "990860", "name": "Downtown Stockton 16 + IMAX", "address": "222 N El Dorado St, Stockton, CA"},
"geometry": {
"type": "Point",
"coordinates": [-121.289786, 37.95523]
}}
,
{"type": "Feature", 
 "properties": {
"rentrak_id": "990864", "name": "Civic Center Stadium 16 + IMAX", "address": "2751 Tapo Cyn Road, Simi Valley, CA"},
"geometry": {
"type": "Point",
"coordinates": [-118.7178564, 34.2854333]
}}
,
{"type": "Feature", 
 "properties": {
"rentrak_id": "990868", "name": "Fairfield Stadium 16 + IMAX", "address": "1549 Gateway Blvd, Fairfield, CA"},
"geometry": {
"type": "Point",
"coordinates": [-122.056631, 38.2605743]
}}
,
{"type": "Feature", 
 "properties": {
"rentrak_id": "990875", "name": "Carmike Muvico Thousand Oaks 14 + MUVIXL", "address": "166 W. Hillcrest Drive, Thousand Oaks, CA"},
"geometry": {
"type": "Point",
"coordinates": [-118.8854782, 34.1822699]
}}
,
{"type": "Feature", 
 "properties": {
"rentrak_id": "990876", "name": "Cinemark Yuba City 12", "address": "1410 Whyler Rd, Yuba City, CA"},
"geometry": {
"type": "Point",
"coordinates": [-121.6361189, 39.1293408]
}}
,
{"type": "Feature", 
 "properties": {
"rentrak_id": "990905", "name": "Camarillo 12 with IMAX", "address": "680 Ventura Blvd, Camarillo, CA"},
"geometry": {
"type": "Point",
"coordinates": [-119.0632035, 34.2172432]
}}
,
{"type": "Feature", 
 "properties": {
"rentrak_id": "901045", "name": "Norwalk 8", "address": "13917 Pioneer Blvd, Norwalk, CA"},
"geometry": {
"type": "Point",
"coordinates": [-118.0843698, 33.9050331]
}}
,
{"type": "Feature", 
 "properties": {
"rentrak_id": "902952", "name": "(Temp Closed)", "address": "395 M St, Crescent City, CA"},
"geometry": {
"type": "Point",
"coordinates": [-124.1939857, 41.7552285]
}}
,
{"type": "Feature", 
 "properties": {
"rentrak_id": "8323", "name": "Vacaville 16", "address": "531 Davis St, Vacaville, CA"},
"geometry": {
"type": "Point",
"coordinates": [-121.984883, 38.35317200000001]
}}
,
{"type": "Feature", 
 "properties": {
"rentrak_id": "9142", "name": "Mary Pickford 14", "address": "36-850 Pickfair St., Cathedral City, CA"},
"geometry": {
"type": "Point",
"coordinates": [-116.4635146, 33.7810348]
}}
,
{"type": "Feature", 
 "properties": {
"rentrak_id": "9162", "name": "Vallejo 14", "address": "109 Plaza Dr, Vallejo, CA"},
"geometry": {
"type": "Point",
"coordinates": [-122.2187809, 38.1313308]
}}
,
{"type": "Feature", 
 "properties": {
"rentrak_id": "8240", "name": "Movies El Centro 10", "address": "2431 Hwy 86, Imperial, CA"},
"geometry": {
"type": "Point",
"coordinates": [-115.5699902, 32.8218944]
}}
,
{"type": "Feature", 
 "properties": {
"rentrak_id": "7392", "name": "Mission Valley 20 with IMAX", "address": "1640 Camino Del Rio N, San Diego, CA"},
"geometry": {
"type": "Point",
"coordinates": [-117.148398, 32.768546]
}}
,
{"type": "Feature", 
 "properties": {
"rentrak_id": "5941", "name": "Movies 12", "address": "44790 Valley Central Way, Lancaster, CA"},
"geometry": {
"type": "Point",
"coordinates": [-118.171143, 34.6963006]
}}
,
{"type": "Feature", 
 "properties": {
"rentrak_id": "5383", "name": "Los Feliz 3", "address": "1822 N Vermont Ave, Los Angeles, CA"},
"geometry": {
"type": "Point",
"coordinates": [-118.2914281, 34.1043583]
}}
,
{"type": "Feature", 
 "properties": {
"rentrak_id": "5388", "name": "Cinemark 16 +XD", "address": "14470 Bear Valley Rd, Victorville, CA"},
"geometry": {
"type": "Point",
"coordinates": [-117.3476951, 34.4734827]
}}
,
{"type": "Feature", 
 "properties": {
"rentrak_id": "5396", "name": "Commerce 14", "address": "950 Goodrich Blvd, Los Angeles, CA"},
"geometry": {
"type": "Point",
"coordinates": [-118.1542801, 34.0184654]
}}
,
{"type": "Feature", 
 "properties": {
"rentrak_id": "5400", "name": "(Temp Closed)", "address": "8864 Century Blvd, Paramount, CA"},
"geometry": {
"type": "Point",
"coordinates": [-118.143649, 33.9027251]
}}
,
{"type": "Feature", 
 "properties": {
"rentrak_id": "4592", "name": "Festival 10", "address": "1160 W Branch St, Arroyo Grande, CA"},
"geometry": {
"type": "Point",
"coordinates": [-120.5967549, 35.1271106]
}}
,
{"type": "Feature", 
 "properties": {
"rentrak_id": "5063", "name": "Broadway 4", "address": "1441 3rd Street Promenade, Santa Monica, CA"},
"geometry": {
"type": "Point",
"coordinates": [-118.4949033, 34.0148056]
}}
,
{"type": "Feature", 
 "properties": {
"rentrak_id": "5082", "name": "Rubidoux Triple DI", "address": "3770 Opal St, Riverside, CA"},
"geometry": {
"type": "Point",
"coordinates": [-117.4246875, 34.0063223]
}}
,
{"type": "Feature", 
 "properties": {
"rentrak_id": "5084", "name": "South Bay Triple DI", "address": "2170 Coronado Ave, San Diego, CA"},
"geometry": {
"type": "Point",
"coordinates": [-117.0864148, 32.5781625]
}}
,
{"type": "Feature", 
 "properties": {
"rentrak_id": "7760", "name": "Del Oro 3", "address": "165 Mill St, Grass Valley, CA"},
"geometry": {
"type": "Point",
"coordinates": [-121.0630299, 39.2173247]
}}
,
{"type": "Feature", 
 "properties": {
"rentrak_id": "7792", "name": "Gaslamp 15", "address": "701 5th Ave, San Diego, CA"},
"geometry": {
"type": "Point",
"coordinates": [-117.159529, 32.712807]
}}
,
{"type": "Feature", 
 "properties": {
"rentrak_id": "7795", "name": "Concord 14", "address": "1985 Willow Pass Rd, Concord, CA"},
"geometry": {
"type": "Point",
"coordinates": [-122.0360904, 37.9764357]
}}
,
{"type": "Feature", 
 "properties": {
"rentrak_id": "8654", "name": "Garden Grove Stadium 16", "address": "9741 Chapman Ave, Garden Grove, CA"},
"geometry": {
"type": "Point",
"coordinates": [-117.9628751, 33.7900293]
}}
,
{"type": "Feature", 
 "properties": {
"rentrak_id": "9030", "name": "Crescent City Cinema", "address": "375 M St, Crescent City, CA"},
"geometry": {
"type": "Point",
"coordinates": [-124.1926991, 41.7552193]
}}
,
{"type": "Feature", 
 "properties": {
"rentrak_id": "9053", "name": "Milpitas Great Mall 20 + XD", "address": "1010 Great Mall Dr, Milpitas, CA"},
"geometry": {
"type": "Point",
"coordinates": [-121.897306, 37.4157439]
}}
,
{"type": "Feature", 
 "properties": {
"rentrak_id": "5988", "name": "Vista", "address": "4473 Sunset Blvd, Los Angeles, CA"},
"geometry": {
"type": "Point",
"coordinates": [-118.287095, 34.0981817]
}}
,
{"type": "Feature", 
 "properties": {
"rentrak_id": "5994", "name": "Paseo Nuevo 4", "address": "8 West De La Guerra Pl, Santa Barbara, CA"},
"geometry": {
"type": "Point",
"coordinates": [-119.7023546, 34.4166643]
}}
,
{"type": "Feature", 
 "properties": {
"rentrak_id": "4903", "name": "University Town Center 6", "address": "4245 Campus Dr, Irvine, CA"},
"geometry": {
"type": "Point",
"coordinates": [-117.8385425, 33.6498899]
}}
,
{"type": "Feature", 
 "properties": {
"rentrak_id": "4904", "name": "Woodbridge Family 5", "address": "4626 Barranca Pkwy, Irvine, CA"},
"geometry": {
"type": "Point",
"coordinates": [-117.799847, 33.677555]
}}
,
{"type": "Feature", 
 "properties": {
"rentrak_id": "4909", "name": "UA Marketplace 6", "address": "6601 E Pacific Coast Hwy, Long Beach, CA"},
"geometry": {
"type": "Point",
"coordinates": [-118.108715, 33.7554575]
}}
,
{"type": "Feature", 
 "properties": {
"rentrak_id": "4913", "name": "South Coast Twin", "address": "456 S Coast Hwy, Laguna Beach, CA"},
"geometry": {
"type": "Point",
"coordinates": [-117.7824808, 33.5410886]
}}
,
{"type": "Feature", 
 "properties": {
"rentrak_id": "4929", "name": "Foothill Center 10", "address": "854 E Alosta Ave, Azusa, CA"},
"geometry": {
"type": "Point",
"coordinates": [-117.8913324, 34.128948]
}}
,
{"type": "Feature", 
 "properties": {
"rentrak_id": "4931", "name": "Camelot 3", "address": "2300 E Baristo Rd, Palm Springs, CA"},
"geometry": {
"type": "Point",
"coordinates": [-116.5212451, 33.81996]
}}
,
{"type": "Feature", 
 "properties": {
"rentrak_id": "4932", "name": "Signature Palm Springs 9", "address": "789 E Tahquitz Canyon Way, Palm Springs, CA"},
"geometry": {
"type": "Point",
"coordinates": [-116.539877, 33.8227267]
}}
,
{"type": "Feature", 
 "properties": {
"rentrak_id": "4936", "name": "Cinemas Palme d'Or", "address": "72840 Us Highway 111, Palm Desert, CA"},
"geometry": {
"type": "Point",
"coordinates": [-116.3934741, 33.7236845]
}}
,
{"type": "Feature", 
 "properties": {
"rentrak_id": "4654", "name": "Saratoga 14 with IMAX", "address": "700 El Paseo De Saratoga, San Jose, CA"},
"geometry": {
"type": "Point",
"coordinates": [-121.9942817, 37.2894958]
}}
,
{"type": "Feature", 
 "properties": {
"rentrak_id": "990786", "name": "Century at Hayward", "address": "22695 Foothill Blvd., Hayward, CA"},
"geometry": {
"type": "Point",
"coordinates": [-122.0803392, 37.6729069]
}}
,
{"type": "Feature", 
 "properties": {
"rentrak_id": "966902", "name": "The California Theatre", "address": "345 S 1st St, San Jose, CA"},
"geometry": {
"type": "Point",
"coordinates": [-121.8867115, 37.330753]
}}
,
{"type": "Feature", 
 "properties": {
"rentrak_id": "4979", "name": "Citywalk Stadium 19 with IMAX", "address": "100 Universal City Plz, Universal City, CA"},
"geometry": {
"type": "Point",
"coordinates": [-118.3532259, 34.1380666]
}}
,
{"type": "Feature", 
 "properties": {
"rentrak_id": "4863", "name": "Scotts Valley 10 Cinema", "address": "226 Mount Hermon Rd, Scotts Valley, CA"},
"geometry": {
"type": "Point",
"coordinates": [-122.0271808, 37.0484735]
}}
,
{"type": "Feature", 
 "properties": {
"rentrak_id": "5833", "name": "Galaxy Glendale 4", "address": "144 S Brand Blvd, Glendale, CA"},
"geometry": {
"type": "Point",
"coordinates": [-118.2546067, 34.1455947]
}}
,
{"type": "Feature", 
 "properties": {
"rentrak_id": "902165", "name": "Reel Cinema", "address": "6742 Wofford Heights Blvd, Wofford Heights, CA"},
"geometry": {
"type": "Point",
"coordinates": [-118.453427, 35.7080095]
}}
,
{"type": "Feature", 
 "properties": {
"rentrak_id": "902178", "name": "Bay Theatre", "address": "464 Morro Bay Blvd, Morro Bay, CA"},
"geometry": {
"type": "Point",
"coordinates": [-120.848066, 35.365584]
}}
,
{"type": "Feature", 
 "properties": {
"rentrak_id": "7437", "name": "Mission Grove 18", "address": "121 E Alessandro Blvd, Riverside, CA"},
"geometry": {
"type": "Point",
"coordinates": [-117.3302479, 33.9153153]
}}
,
{"type": "Feature", 
 "properties": {
"rentrak_id": "7322", "name": "UA La Canada 8", "address": "1919 Verdugo Blvd, La Canada Flt, CA"},
"geometry": {
"type": "Point",
"coordinates": [-118.2172181, 34.2056079]
}}
,
{"type": "Feature", 
 "properties": {
"rentrak_id": "9274", "name": "Mount Shasta Cinemas", "address": "118 Morgan Way, Mount Shasta, CA"},
"geometry": {
"type": "Point",
"coordinates": [-122.3172057, 41.3106647]
}}
,
{"type": "Feature", 
 "properties": {
"rentrak_id": "4911", "name": "Mission Tiki 4 DI", "address": "4407 State St, Montclair, CA"},
"geometry": {
"type": "Point",
"coordinates": [-117.7081008, 34.0585107]
}}
,
{"type": "Feature", 
 "properties": {
"rentrak_id": "903004", "name": "Oakdale Cinema", "address": "832 N. Yosemite Ave., Oakdale, CA"},
"geometry": {
"type": "Point",
"coordinates": [-120.85276, 37.7762391]
}}
,
{"type": "Feature", 
 "properties": {
"rentrak_id": "902932", "name": "(Temp Closed)", "address": "10034 14th Ave, Hanford, CA"},
"geometry": {
"type": "Point",
"coordinates": [-119.7090166, 36.3280995]
}}
,
{"type": "Feature", 
 "properties": {
"rentrak_id": "902935", "name": "Town Hall Theater", "address": "469 Main St, Quincy, CA"},
"geometry": {
"type": "Point",
"coordinates": [-120.9300559, 39.9352328]
}}
,
{"type": "Feature", 
 "properties": {
"rentrak_id": "8376", "name": "Canyon Country Stadium 10", "address": "18800 Soledad Canyon Rd, Santa Clarita, CA"},
"geometry": {
"type": "Point",
"coordinates": [-118.4631647, 34.4148966]
}}
,
{"type": "Feature", 
 "properties": {
"rentrak_id": "7282", "name": "Academy 6", "address": "1003 E Colorado Blvd, Pasadena, CA"},
"geometry": {
"type": "Point",
"coordinates": [-118.129498, 34.1460475]
}}
,
{"type": "Feature", 
 "properties": {
"rentrak_id": "4940", "name": "Island 7", "address": "999 Newport Center Dr W, Newport Beach, CA"},
"geometry": {
"type": "Point",
"coordinates": [-117.8782141, 33.6147195]
}}
,
{"type": "Feature", 
 "properties": {
"rentrak_id": "4985", "name": "Sherman Oaks 5", "address": "14424 Milbank Street, Sherman Oaks, CA"},
"geometry": {
"type": "Point",
"coordinates": [-118.447484, 34.15281179999999]
}}
,
{"type": "Feature", 
 "properties": {
"rentrak_id": "4647", "name": "Berkeley 7", "address": "2274 Shattuck Ave, Berkeley, CA"},
"geometry": {
"type": "Point",
"coordinates": [-122.2681998, 37.8679683]
}}
,
{"type": "Feature", 
 "properties": {
"rentrak_id": "8488", "name": "Fox 3", "address": "514 Center St, Taft, CA"},
"geometry": {
"type": "Point",
"coordinates": [-119.4594168, 35.1411177]
}}
,
{"type": "Feature", 
 "properties": {
"rentrak_id": "7003", "name": "Rialto Cinemas Sebastopol", "address": "6868 Mckinley Ave, Sebastopol, CA"},
"geometry": {
"type": "Point",
"coordinates": [-122.8227008, 38.4039778]
}}
,
{"type": "Feature", 
 "properties": {
"rentrak_id": "4581", "name": "Arden Fair 6", "address": "1798 Arden Way, Sacramento, CA"},
"geometry": {
"type": "Point",
"coordinates": [-121.425039, 38.598442]
}}
,
{"type": "Feature", 
 "properties": {
"rentrak_id": "7190", "name": "Baldwin Hills 15 + XD", "address": "4020 Marlton Ave, Baldwin Hills, CA"},
"geometry": {
"type": "Point",
"coordinates": [-118.3373468, 34.011654]
}}
,
{"type": "Feature", 
 "properties": {
"rentrak_id": "6767", "name": "Westpark 8", "address": "3755 Alton Pkwy, Irvine, CA"},
"geometry": {
"type": "Point",
"coordinates": [-117.8140463, 33.6825773]
}}
,
{"type": "Feature", 
 "properties": {
"rentrak_id": "6573", "name": "Anaheim Hills 14", "address": "8032 Santa Ana Canyon Rd, Anaheim, CA"},
"geometry": {
"type": "Point",
"coordinates": [-117.751837, 33.865001]
}}
,
{"type": "Feature", 
 "properties": {
"rentrak_id": "6611", "name": "Towngate 8", "address": "12625 Frederick St, Moreno Valley, CA"},
"geometry": {
"type": "Point",
"coordinates": [-117.261715, 33.9369733]
}}
,
{"type": "Feature", 
 "properties": {
"rentrak_id": "4859", "name": "Piedmont 3", "address": "4186 Piedmont Ave, Piedmont, CA"},
"geometry": {
"type": "Point",
"coordinates": [-122.2509221, 37.8273476]
}}
,
{"type": "Feature", 
 "properties": {
"rentrak_id": "903727", "name": "Arclight Hollywood", "address": "6360 W Sunset Blvd, Los Angeles, CA"},
"geometry": {
"type": "Point",
"coordinates": [-118.327328, 34.097144]
}}
,
{"type": "Feature", 
 "properties": {
"rentrak_id": "903827", "name": "Grove Stadium 14", "address": "189 The Grove Dr, Los Angeles, CA"},
"geometry": {
"type": "Point",
"coordinates": [-118.3568692, 34.0713424]
}}
,
{"type": "Feature", 
 "properties": {
"rentrak_id": "6821", "name": "La Jolla 12", "address": "8657 Villa La Jolla Dr, La Jolla, CA"},
"geometry": {
"type": "Point",
"coordinates": [-117.2317657, 32.8646622]
}}
,
{"type": "Feature", 
 "properties": {
"rentrak_id": "6731", "name": "Novato Rowland Plaza 8", "address": "44 Rowland Ct, Novato, CA"},
"geometry": {
"type": "Point",
"coordinates": [-122.5715178, 38.0847532]
}}
,
{"type": "Feature", 
 "properties": {
"rentrak_id": "903951", "name": "Hackworth IMAX", "address": "201 S Market St, San Jose, CA"},
"geometry": {
"type": "Point",
"coordinates": [-121.8901264, 37.331629]
}}
,
{"type": "Feature", 
 "properties": {
"rentrak_id": "903963", "name": "Esquire IMAX", "address": "1211 K St, Sacramento, CA"},
"geometry": {
"type": "Point",
"coordinates": [-121.4904873, 38.5785846]
}}
,
{"type": "Feature", 
 "properties": {
"rentrak_id": "8105", "name": "Coast 4", "address": "167 S Franklin St, Fort Bragg, CA"},
"geometry": {
"type": "Point",
"coordinates": [-123.8045967, 39.4405127]
}}
,
{"type": "Feature", 
 "properties": {
"rentrak_id": "5800", "name": "Ken", "address": "4061 Adams Ave, San Diego, CA"},
"geometry": {
"type": "Point",
"coordinates": [-117.1080993, 32.7630236]
}}
,
{"type": "Feature", 
 "properties": {
"rentrak_id": "5816", "name": "Minor 3", "address": "1013 H St, Arcata, CA"},
"geometry": {
"type": "Point",
"coordinates": [-124.086621, 40.8699513]
}}
,
{"type": "Feature", 
 "properties": {
"rentrak_id": "5385", "name": "Movies 10", "address": "12353 Mariposa Rd, Victorville, CA"},
"geometry": {
"type": "Point",
"coordinates": [-117.340917, 34.4745802]
}}
,
{"type": "Feature", 
 "properties": {
"rentrak_id": "5530", "name": "AMC Marina 6 DIT", "address": "13455 Maxella Ave, Marina Del Rey, CA"},
"geometry": {
"type": "Point",
"coordinates": [-118.4427714, 33.9864365]
}}
,
{"type": "Feature", 
 "properties": {
"rentrak_id": "5091", "name": "UA Horton Plaza 14", "address": "475 Horton Plaza, San Diego, CA"},
"geometry": {
"type": "Point",
"coordinates": [-117.1635311, 32.7137504]
}}
,
{"type": "Feature", 
 "properties": {
"rentrak_id": "8576", "name": "Deer Valley Stadium 16", "address": "4205 Lone Tree Way, Antioch, CA"},
"geometry": {
"type": "Point",
"coordinates": [-121.7952732, 37.97113909999999]
}}
,
{"type": "Feature", 
 "properties": {
"rentrak_id": "7536", "name": "Metro Pointe Stadium 12", "address": "901 S Coast Dr, Costa Mesa, CA"},
"geometry": {
"type": "Point",
"coordinates": [-117.8945008, 33.68930539999999]
}}
,
{"type": "Feature", 
 "properties": {
"rentrak_id": "4956", "name": "Town Center 5", "address": "17200 Ventura Blvd, Encino, CA"},
"geometry": {
"type": "Point",
"coordinates": [-118.5077085, 34.1598622]
}}
,
{"type": "Feature", 
 "properties": {
"rentrak_id": "8326", "name": "Broadway Cinema", "address": "1223 Broadway St, Eureka, CA"},
"geometry": {
"type": "Point",
"coordinates": [-124.1746559, 40.7954186]
}}
,
{"type": "Feature", 
 "properties": {
"rentrak_id": "5491", "name": "La Jolla Village 4", "address": "8879 Villa La Jolla Dr, La Jolla, CA"},
"geometry": {
"type": "Point",
"coordinates": [-117.2337398, 32.8695973]
}}
,
{"type": "Feature", 
 "properties": {
"rentrak_id": "4966", "name": "TCL Chinese Theatre + IMAX", "address": "6925 Hollywood Blvd, Hollywood, CA"},
"geometry": {
"type": "Point",
"coordinates": [-118.3418565, 34.102074]
}}
,
{"type": "Feature", 
 "properties": {
"rentrak_id": "4719", "name": "The Port Theater", "address": "2905 E Coast Hwy, Corona Del Mar, CA"},
"geometry": {
"type": "Point",
"coordinates": [-117.8724444, 33.5994901]
}}
,
{"type": "Feature", 
 "properties": {
"rentrak_id": "5949", "name": "Blackhawk Movies 7", "address": "4175 Blackhawk Plaza Cir, Danville, CA"},
"geometry": {
"type": "Point",
"coordinates": [-121.917659, 37.799266]
}}
,
{"type": "Feature", 
 "properties": {
"rentrak_id": "7394", "name": "Jack London 9", "address": "100 Washington St, Oakland, CA"},
"geometry": {
"type": "Point",
"coordinates": [-122.2776748, 37.79615200000001]
}}
,
{"type": "Feature", 
 "properties": {
"rentrak_id": "7552", "name": "Sequoia Mall 12", "address": "3355 S Mooney Blvd, Visalia, CA"},
"geometry": {
"type": "Point",
"coordinates": [-119.3137872, 36.3002808]
}}
,
{"type": "Feature", 
 "properties": {
"rentrak_id": "7764", "name": "Brea Stadium 22", "address": "155 W Birch St, Brea, CA"},
"geometry": {
"type": "Point",
"coordinates": [-117.8997814, 33.9189046]
}}
,
{"type": "Feature", 
 "properties": {
"rentrak_id": "8384", "name": "Signature Stadium 10", "address": "120 S Bridge St, Visalia, CA"},
"geometry": {
"type": "Point",
"coordinates": [-119.288618, 36.329709]
}}
,
{"type": "Feature", 
 "properties": {
"rentrak_id": "8481", "name": "Rancho San Diego Stadium 15", "address": "2951 Jamacha Rd, El Cajon, CA"},
"geometry": {
"type": "Point",
"coordinates": [-116.9410227, 32.7341053]
}}
,
{"type": "Feature", 
 "properties": {
"rentrak_id": "8594", "name": "Cinemark 22 + IMAX", "address": "2600 W Avenue I, Lancaster, CA"},
"geometry": {
"type": "Point",
"coordinates": [-118.1780305, 34.7027135]
}}
,
{"type": "Feature", 
 "properties": {
"rentrak_id": "902939", "name": "Mt. Burney Theater", "address": "37030 Hwy 299, Burney, CA"},
"geometry": {
"type": "Point",
"coordinates": [-121.670046, 40.882269]
}}
,
{"type": "Feature", 
 "properties": {
"rentrak_id": "902951", "name": "Lark", "address": "549 Magnolia Ave, Larkspur, CA"},
"geometry": {
"type": "Point",
"coordinates": [-122.535207, 37.93699900000001]
}}
,
{"type": "Feature", 
 "properties": {
"rentrak_id": "9290", "name": "Arclight Pasadena", "address": "336 E Colorado Blvd, Pasadena, CA"},
"geometry": {
"type": "Point",
"coordinates": [-118.1434167, 34.1452156]
}}
,
{"type": "Feature", 
 "properties": {
"rentrak_id": "8643", "name": "Rancho 16", "address": "72771 Dinah Shore Dr, Rancho Mirage, CA"},
"geometry": {
"type": "Point",
"coordinates": [-116.394131, 33.8011289]
}}
,
{"type": "Feature", 
 "properties": {
"rentrak_id": "8007", "name": "Selma 6", "address": "2705 Cinema Way, Selma, CA"},
"geometry": {
"type": "Point",
"coordinates": [-119.624756, 36.573018]
}}
,
{"type": "Feature", 
 "properties": {
"rentrak_id": "952901", "name": "Riverside Plaza Stadium 16", "address": "3535 Riverside PLaza Drive, Riverside, CA"},
"geometry": {
"type": "Point",
"coordinates": [-117.3900098, 33.9558708]
}}
,
{"type": "Feature", 
 "properties": {
"rentrak_id": "990342", "name": "Phoenix BIG Cinemas Dos Lagos Stadium 15", "address": "2710 Lakeshore Dr, Corona, CA"},
"geometry": {
"type": "Point",
"coordinates": [-117.509596, 33.813933]
}}
,
{"type": "Feature", 
 "properties": {
"rentrak_id": "990532", "name": "Pico Rivera Village Walk 15", "address": "8540 Whittier Blvd., Pico Rivera, CA"},
"geometry": {
"type": "Point",
"coordinates": [-118.090641, 34.0025437]
}}
,
{"type": "Feature", 
 "properties": {
"rentrak_id": "990657", "name": "Pacific Theatres Glendale 18", "address": "322 Americana Way, Glendale, CA"},
"geometry": {
"type": "Point",
"coordinates": [-118.2572728, 34.1428243]
}}
,
{"type": "Feature", 
 "properties": {
"rentrak_id": "990151", "name": "Valley 11 Cinemas", "address": "1816 Highway 273, Anderson, CA"},
"geometry": {
"type": "Point",
"coordinates": [-122.2870062, 40.4354291]
}}
,
{"type": "Feature", 
 "properties": {
"rentrak_id": "991166", "name": "Atlantic Times Square 14", "address": "450 N. Atlantic Ave., Monterey Park, CA"},
"geometry": {
"type": "Point",
"coordinates": [-118.1341587, 34.0676026]
}}
,
{"type": "Feature", 
 "properties": {
"rentrak_id": "4672", "name": "Vogue", "address": "3290 Sacramento St, San Francisco, CA"},
"geometry": {
"type": "Point",
"coordinates": [-122.4466964, 37.7884424]
}}
,
{"type": "Feature", 
 "properties": {
"rentrak_id": "904429", "name": "Platinum Theatre 6", "address": "250 S M St, Dinuba, CA"},
"geometry": {
"type": "Point",
"coordinates": [-119.3891801, 36.5389066]
}}
,
{"type": "Feature", 
 "properties": {
"rentrak_id": "904310", "name": "Desert IMAX Theatre", "address": "68510 E Palm Canyon Dr, Cathedral City, CA"},
"geometry": {
"type": "Point",
"coordinates": [-116.4662613, 33.7808608]
}}
,
{"type": "Feature", 
 "properties": {
"rentrak_id": "990596", "name": "Downtown Independent", "address": "251 S. Main St., Los Angeles, CA"},
"geometry": {
"type": "Point",
"coordinates": [-118.245687, 34.050286]
}}
,
{"type": "Feature", 
 "properties": {
"rentrak_id": "990835", "name": "El Dorado Hills Stadium 14 with IMAX", "address": "2101 Vine St., El Dorado Hills, CA"},
"geometry": {
"type": "Point",
"coordinates": [-121.0622183, 38.6521044]
}}
,
{"type": "Feature", 
 "properties": {
"rentrak_id": "991142", "name": "Galaxy Colony Square Theatre", "address": "El Camino Real &amp; Highway 41, Atascadero, CA"},
"geometry": {
"type": "Point",
"coordinates": [-120.604208, 35.4259589]
}}
,
{"type": "Feature", 
 "properties": {
"rentrak_id": "991210", "name": "Summerfield Cinema", "address": "551 Summerfield Rd, Santa Rosa, CA"},
"geometry": {
"type": "Point",
"coordinates": [-122.6707613, 38.45321819999999]
}}
,
{"type": "Feature", 
 "properties": {
"rentrak_id": "905095", "name": "The Retro Dome", "address": "1694 Saratoga Ave, San Jose, CA"},
"geometry": {
"type": "Point",
"coordinates": [-121.9917789, 37.2918549]
}}
,
{"type": "Feature", 
 "properties": {
"rentrak_id": "937899", "name": "Galaxy Tulare 10", "address": "1575 Retherford St, Tulare, CA"},
"geometry": {
"type": "Point",
"coordinates": [-119.335835, 36.22804]
}}
,
{"type": "Feature", 
 "properties": {
"rentrak_id": "8289", "name": "Van Ness 14 with IMAX", "address": "1000 Van Ness Ave, San Francisco, CA"},
"geometry": {
"type": "Point",
"coordinates": [-122.4209061, 37.7850262]
}}
,
{"type": "Feature", 
 "properties": {
"rentrak_id": "6553", "name": "Sierra 4", "address": "840 E Main St, Grass Valley, CA"},
"geometry": {
"type": "Point",
"coordinates": [-121.0536784, 39.2275561]
}}
,
{"type": "Feature", 
 "properties": {
"rentrak_id": "6558", "name": "41st Avenue Playhouse 3", "address": "1475 41st Ave, Capitola, CA"},
"geometry": {
"type": "Point",
"coordinates": [-121.9663083, 36.9734505]
}}
,
{"type": "Feature", 
 "properties": {
"rentrak_id": "6563", "name": "Madera 7", "address": "1140 N Gateway Dr, Madera, CA"},
"geometry": {
"type": "Point",
"coordinates": [-120.076759, 36.97589]
}}
,
{"type": "Feature", 
 "properties": {
"rentrak_id": "8009", "name": "Porterville 9", "address": "631 N Indiana St, Porterville, CA"},
"geometry": {
"type": "Point",
"coordinates": [-119.03601, 36.0779799]
}}
,
{"type": "Feature", 
 "properties": {
"rentrak_id": "7033", "name": "Rustic", "address": "54290 N Circle Dr, Idyllwild, CA"},
"geometry": {
"type": "Point",
"coordinates": [-116.713298, 33.745939]
}}
,
{"type": "Feature", 
 "properties": {
"rentrak_id": "7042", "name": "Highland Park 3", "address": "5604 N Figueroa St, Highland Park, CA"},
"geometry": {
"type": "Point",
"coordinates": [-118.19353, 34.10884]
}}
,
{"type": "Feature", 
 "properties": {
"rentrak_id": "7055", "name": "Village Coronado", "address": "820 Orange Ave, Coronado, CA"},
"geometry": {
"type": "Point",
"coordinates": [-117.1786345, 32.6884417]
}}
,
{"type": "Feature", 
 "properties": {
"rentrak_id": "7073", "name": "Holiday 6", "address": "101 F St, Davis, CA"},
"geometry": {
"type": "Point",
"coordinates": [-121.740089, 38.542436]
}}
,
{"type": "Feature", 
 "properties": {
"rentrak_id": "5964", "name": "Metro 4", "address": "123 E 7th St, Hanford, CA"},
"geometry": {
"type": "Point",
"coordinates": [-119.644379, 36.326503]
}}
,
{"type": "Feature", 
 "properties": {
"rentrak_id": "5860", "name": "Terrace Cinema 6", "address": "28901 S Western Ave, Rancho Palos Verdes, CA"},
"geometry": {
"type": "Point",
"coordinates": [-118.3101324, 33.7552821]
}}
,
{"type": "Feature", 
 "properties": {
"rentrak_id": "5872", "name": "Fontana 8", "address": "16741 Valley Blvd, Fontana, CA"},
"geometry": {
"type": "Point",
"coordinates": [-117.439018, 34.067952]
}}
,
{"type": "Feature", 
 "properties": {
"rentrak_id": "5884", "name": "Hillcrest 5", "address": "3965 5th Ave, San Diego, CA"},
"geometry": {
"type": "Point",
"coordinates": [-117.159919, 32.74933499999999]
}}
,
{"type": "Feature", 
 "properties": {
"rentrak_id": "5569", "name": "Towne 3 Cinemas", "address": "1433 The Alameda, San Jose, CA"},
"geometry": {
"type": "Point",
"coordinates": [-121.9145108, 37.3331763]
}}
,
{"type": "Feature", 
 "properties": {
"rentrak_id": "7131", "name": "Roxy Stadium 11", "address": "5001 Verdugo Way, Camarillo, CA"},
"geometry": {
"type": "Point",
"coordinates": [-119.004079, 34.216406]
}}
,
{"type": "Feature", 
 "properties": {
"rentrak_id": "8455", "name": "Calabasas Stadium 6", "address": "4767 Commons Way, Calabasas, CA"},
"geometry": {
"type": "Point",
"coordinates": [-118.6450162, 34.1548348]
}}
,
{"type": "Feature", 
 "properties": {
"rentrak_id": "8458", "name": "Parkway Plaza Stadium 18 + IMAX", "address": "405 Parkway Plaza, El Cajon, CA"},
"geometry": {
"type": "Point",
"coordinates": [-116.9678835, 32.8047306]
}}
,
{"type": "Feature", 
 "properties": {
"rentrak_id": "8471", "name": "Turlock Stadium 14", "address": "2400 W Main St, Turlock, CA"},
"geometry": {
"type": "Point",
"coordinates": [-120.876319, 37.492659]
}}
,
{"type": "Feature", 
 "properties": {
"rentrak_id": "8486", "name": "Plant 16", "address": "7876 Van Nuys Blvd, Van Nuys, CA"},
"geometry": {
"type": "Point",
"coordinates": [-118.4487463, 34.214083]
}}
,
{"type": "Feature", 
 "properties": {
"rentrak_id": "8495", "name": "Playhouse 7", "address": "673 E Colorado Blvd, Pasadena, CA"},
"geometry": {
"type": "Point",
"coordinates": [-118.1365227, 34.1460865]
}}
,
{"type": "Feature", 
 "properties": {
"rentrak_id": "8013", "name": "Gardena", "address": "14948 Crenshaw Blvd, Gardena, CA"},
"geometry": {
"type": "Point",
"coordinates": [-118.326074, 33.895978]
}}
,
{"type": "Feature", 
 "properties": {
"rentrak_id": "8887", "name": "Skyline Twin DI", "address": "31175 Old Highway 58, Barstow, CA"},
"geometry": {
"type": "Point",
"coordinates": [-116.983179, 34.913874]
}}
,
{"type": "Feature", 
 "properties": {
"rentrak_id": "4941", "name": "Lido", "address": "3459 Via Lido, Newport Beach, CA"},
"geometry": {
"type": "Point",
"coordinates": [-117.9294113, 33.6181302]
}}
,
{"type": "Feature", 
 "properties": {
"rentrak_id": "7455", "name": "Airport Stadium 12", "address": "409 Aviation Blvd, Santa Rosa, CA"},
"geometry": {
"type": "Point",
"coordinates": [-122.7804012, 38.5126823]
}}
,
{"type": "Feature", 
 "properties": {
"rentrak_id": "7466", "name": "Norwalk 20 with IMAX", "address": "12300 Civic Center Dr, Norwalk, CA"},
"geometry": {
"type": "Point",
"coordinates": [-118.0711787, 33.91369540000001]
}}
,
{"type": "Feature", 
 "properties": {
"rentrak_id": "6653", "name": "Carmel Mountain 12", "address": "11620 Carmel Mountain Rd, San Diego, CA"},
"geometry": {
"type": "Point",
"coordinates": [-117.0814185, 32.9813305]
}}
,
{"type": "Feature", 
 "properties": {
"rentrak_id": "6686", "name": "(Temp Closed)", "address": "41 N Santa Cruz Ave, Los Gatos, CA"},
"geometry": {
"type": "Point",
"coordinates": [-121.983671, 37.223892]
}}
,
{"type": "Feature", 
 "properties": {
"rentrak_id": "8581", "name": "Brenden 18", "address": "1021 10th St, Modesto, CA"},
"geometry": {
"type": "Point",
"coordinates": [-121.001457, 37.640707]
}}
,
{"type": "Feature", 
 "properties": {
"rentrak_id": "8831", "name": "Angel 6", "address": "1228 S Main St, Angels Camp, CA"},
"geometry": {
"type": "Point",
"coordinates": [-120.5402846, 38.0692828]
}}
,
{"type": "Feature", 
 "properties": {
"rentrak_id": "7168", "name": "Plaza Cinemas", "address": "2501 Winchester Blvd, Campbell, CA"},
"geometry": {
"type": "Point",
"coordinates": [-121.9497848, 37.2782406]
}}
,
{"type": "Feature", 
 "properties": {
"rentrak_id": "7170", "name": "Roxie", "address": "3117 16th St, San Francisco, CA"},
"geometry": {
"type": "Point",
"coordinates": [-122.4224627, 37.7647014]
}}
,
{"type": "Feature", 
 "properties": {
"rentrak_id": "8533", "name": "Calexico 10", "address": "2441 Scaroni Rd, Calexico, CA"},
"geometry": {
"type": "Point",
"coordinates": [-115.5012161, 32.6964256]
}}
,
{"type": "Feature", 
 "properties": {
"rentrak_id": "8544", "name": "La Habra Stadium 16", "address": "1413 W Imperial Hwy, La Habra, CA"},
"geometry": {
"type": "Point",
"coordinates": [-117.9619177, 33.9173968]
}}
,
{"type": "Feature", 
 "properties": {
"rentrak_id": "8218", "name": "Uptown 4", "address": "501 Main St, Susanville, CA"},
"geometry": {
"type": "Point",
"coordinates": [-120.663591, 40.419356]
}}
,
{"type": "Feature", 
 "properties": {
"rentrak_id": "8791", "name": "Osio Plaza 6", "address": "350 Alvarado St, Monterey, CA"},
"geometry": {
"type": "Point",
"coordinates": [-121.8942764, 36.6003054]
}}
,
{"type": "Feature", 
 "properties": {
"rentrak_id": "5573", "name": "Metro 4", "address": "618 State St, Santa Barbara, CA"},
"geometry": {
"type": "Point",
"coordinates": [-119.6971881, 34.4182892]
}}
,
{"type": "Feature", 
 "properties": {
"rentrak_id": "5576", "name": "Barstow Station 6", "address": "1503 E Main St, Barstow, CA"},
"geometry": {
"type": "Point",
"coordinates": [-117.0023983, 34.8946831]
}}
,
{"type": "Feature", 
 "properties": {
"rentrak_id": "5583", "name": "Agoura 8", "address": "29046 Agoura Rd, Agoura Hills, CA"},
"geometry": {
"type": "Point",
"coordinates": [-118.7575979, 34.1434443]
}}
,
{"type": "Feature", 
 "properties": {
"rentrak_id": "4776", "name": "Lakeport 5", "address": "52 Soda Bay Road, Lakeport, CA"},
"geometry": {
"type": "Point",
"coordinates": [-122.9088666, 39.0153484]
}}
,
{"type": "Feature", 
 "properties": {
"rentrak_id": "4779", "name": "Movies 8", "address": "1669 W Lacey Blvd, Hanford, CA"},
"geometry": {
"type": "Point",
"coordinates": [-119.670158, 36.3256824]
}}
,
{"type": "Feature", 
 "properties": {
"rentrak_id": "4782", "name": "Cinemark Movies 8", "address": "359 Park Marina Cir, Redding, CA"},
"geometry": {
"type": "Point",
"coordinates": [-122.3736294, 40.5768445]
}}
,
{"type": "Feature", 
 "properties": {
"rentrak_id": "4783", "name": "Placerville 8", "address": "337 Placerville Dr, Placerville, CA"},
"geometry": {
"type": "Point",
"coordinates": [-120.834979, 38.73207]
}}
,
{"type": "Feature", 
 "properties": {
"rentrak_id": "4787", "name": "Stanford", "address": "221 University Ave, Palo Alto, CA"},
"geometry": {
"type": "Point",
"coordinates": [-122.1626228, 37.445042]
}}
,
{"type": "Feature", 
 "properties": {
"rentrak_id": "4798", "name": "Camera 3", "address": "288 S 2nd St, San Jose, CA"},
"geometry": {
"type": "Point",
"coordinates": [-121.8860278, 37.332438]
}}
,
{"type": "Feature", 
 "properties": {
"rentrak_id": "4805", "name": "Tennant Station Stadium Cinemas", "address": "800 Tennant Sta, Morgan Hill, CA"},
"geometry": {
"type": "Point",
"coordinates": [-121.6379347, 37.1144276]
}}
,
{"type": "Feature", 
 "properties": {
"rentrak_id": "7486", "name": "Folsom 14", "address": "201 Iron Point Rd, Folsom, CA"},
"geometry": {
"type": "Point",
"coordinates": [-121.1895312, 38.6428468]
}}
,
{"type": "Feature", 
 "properties": {
"rentrak_id": "8513", "name": "Ontario Mountain Village Stadium 14", "address": "1575 N Mountain Ave, Ontario, CA"},
"geometry": {
"type": "Point",
"coordinates": [-117.6711, 34.086322]
}}
,
{"type": "Feature", 
 "properties": {
"rentrak_id": "7522", "name": "Perris 10", "address": "1688 N Perris Blvd, Perris, CA"},
"geometry": {
"type": "Point",
"coordinates": [-117.229532, 33.803723]
}}
,
{"type": "Feature", 
 "properties": {
"rentrak_id": "7535", "name": "Bakersfield Stadium 14", "address": "9000 Ming Ave, Bakersfield, CA"},
"geometry": {
"type": "Point",
"coordinates": [-119.1038022, 35.341103]
}}
,
{"type": "Feature", 
 "properties": {
"rentrak_id": "6704", "name": "Aero", "address": "1328 Montana Ave, Santa Monica, CA"},
"geometry": {
"type": "Point",
"coordinates": [-118.4952572, 34.0318921]
}}
,
{"type": "Feature", 
 "properties": {
"rentrak_id": "6729", "name": "MovieMax", "address": "2601 El Camino Real, Carlsbad, CA"},
"geometry": {
"type": "Point",
"coordinates": [-117.3273826, 33.1770907]
}}
,
{"type": "Feature", 
 "properties": {
"rentrak_id": "6730", "name": "Temeku 7", "address": "26463 Ynez Rd, Temecula, CA"},
"geometry": {
"type": "Point",
"coordinates": [-117.1572946, 33.5217823]
}}
,
{"type": "Feature", 
 "properties": {
"rentrak_id": "7494", "name": "Cinepolis Rancho Santa Margarita 6", "address": "30632 Santa Margarita Pkwy, Rcho Sta Marg, CA"},
"geometry": {
"type": "Point",
"coordinates": [-117.623842, 33.6440374]
}}
,
{"type": "Feature", 
 "properties": {
"rentrak_id": "7209", "name": "Paseo Camarillo 3", "address": "390 N Lantana St, Camarillo, CA"},
"geometry": {
"type": "Point",
"coordinates": [-119.0549809, 34.2207573]
}}
,
{"type": "Feature", 
 "properties": {
"rentrak_id": "4801", "name": "Aquarius 2", "address": "430 Emerson St, Palo Alto, CA"},
"geometry": {
"type": "Point",
"coordinates": [-122.1637043, 37.4449973]
}}
,
{"type": "Feature", 
 "properties": {
"rentrak_id": "7206", "name": "Park Twin", "address": "6504 Pacific Blvd, Huntington Park, CA"},
"geometry": {
"type": "Point",
"coordinates": [-118.2248314, 33.9803537]
}}
,
{"type": "Feature", 
 "properties": {
"rentrak_id": "7208", "name": "New Beverly", "address": "7165 Beverly Blvd, Los Angeles, CA"},
"geometry": {
"type": "Point",
"coordinates": [-118.3457516, 34.0763869]
}}
,
{"type": "Feature", 
 "properties": {
"rentrak_id": "7212", "name": "Vineland 4 DI", "address": "443 Vineland Ave, City Of Industry, CA"},
"geometry": {
"type": "Point",
"coordinates": [-117.9889752, 34.0537189]
}}
,
{"type": "Feature", 
 "properties": {
"rentrak_id": "7214", "name": "Embarcadero Center Cinema", "address": "1 Embarcadero Ctr, San Francisco, CA"},
"geometry": {
"type": "Point",
"coordinates": [-122.3992897, 37.7946496]
}}
,
{"type": "Feature", 
 "properties": {
"rentrak_id": "7234", "name": "Sonoma 9", "address": "200 Siesta Way, Sonoma, CA"},
"geometry": {
"type": "Point",
"coordinates": [-122.4772231, 38.309237]
}}
,
{"type": "Feature", 
 "properties": {
"rentrak_id": "5001", "name": "Fiesta 5", "address": "916 State St, Santa Barbara, CA"},
"geometry": {
"type": "Point",
"coordinates": [-119.7006762, 34.4214216]
}}
,
{"type": "Feature", 
 "properties": {
"rentrak_id": "4875", "name": "Hiway DI", "address": "3170 Santa Maria Way, Santa Maria, CA"},
"geometry": {
"type": "Point",
"coordinates": [-120.4259716, 34.9026074]
}}
,
{"type": "Feature", 
 "properties": {
"rentrak_id": "4718", "name": "Parks Plaza 5", "address": "515 Mcmurray Rd, Buellton, CA"},
"geometry": {
"type": "Point",
"coordinates": [-120.1884971, 34.6143466]
}}
,
{"type": "Feature", 
 "properties": {
"rentrak_id": "8582", "name": "Union City 25 + XD", "address": "31200 Alvarado Niles Road, Union City, CA"},
"geometry": {
"type": "Point",
"coordinates": [-122.0674524, 37.5980354]
}}
,
{"type": "Feature", 
 "properties": {
"rentrak_id": "8093", "name": "Roseville 14 + XD", "address": "1555 Eureka Rd, Roseville, CA"},
"geometry": {
"type": "Point",
"coordinates": [-121.24772, 38.7500584]
}}
,
{"type": "Feature", 
 "properties": {
"rentrak_id": "8103", "name": "(Temp Closed)", "address": "915 11th Ave, Delano, CA"},
"geometry": {
"type": "Point",
"coordinates": [-119.245213, 35.770794]
}}
,
{"type": "Feature", 
 "properties": {
"rentrak_id": "8106", "name": "Feather River 6", "address": "2690 Feather River Blvd, Oroville, CA"},
"geometry": {
"type": "Point",
"coordinates": [-121.5744846, 39.4909744]
}}
,
{"type": "Feature", 
 "properties": {
"rentrak_id": "8107", "name": "Noyo 3", "address": "57 E Commercial St, Willits, CA"},
"geometry": {
"type": "Point",
"coordinates": [-123.353874, 39.412133]
}}
,
{"type": "Feature", 
 "properties": {
"rentrak_id": "7279", "name": "Santa Paula 7", "address": "550 W Main St, Santa Paula, CA"},
"geometry": {
"type": "Point",
"coordinates": [-119.0816642, 34.3465906]
}}
,
{"type": "Feature", 
 "properties": {
"rentrak_id": "7283", "name": "Whittier Village", "address": "7038 Greenleaf Ave, Whittier, CA"},
"geometry": {
"type": "Point",
"coordinates": [-118.0371224, 33.9779476]
}}
,
{"type": "Feature", 
 "properties": {
"rentrak_id": "7285", "name": "Four Star 4 Garden Grove", "address": "12111 Valley View St, Garden Grove, CA"},
"geometry": {
"type": "Point",
"coordinates": [-118.0294944, 33.7865803]
}}
,
{"type": "Feature", 
 "properties": {
"rentrak_id": "5402", "name": "Fallbrook 7 (10/4)", "address": "6731 Fallbrook Ave, West Hills, CA"},
"geometry": {
"type": "Point",
"coordinates": [-118.6251553, 34.1929777]
}}
,
{"type": "Feature", 
 "properties": {
"rentrak_id": "4625", "name": "Presidio Theatre", "address": "2340 Chestnut St, San Francisco, CA"},
"geometry": {
"type": "Point",
"coordinates": [-122.441968, 37.800377]
}}
,
{"type": "Feature", 
 "properties": {
"rentrak_id": "4786", "name": "Orinda 3", "address": "16 Moraga Way, Orinda, CA"},
"geometry": {
"type": "Point",
"coordinates": [-122.1815711, 37.8787706]
}}
,
{"type": "Feature", 
 "properties": {
"rentrak_id": "6732", "name": "Maya 15 Cinema", "address": "4085 Century Blvd, Pittsburg, CA"},
"geometry": {
"type": "Point",
"coordinates": [-121.844438, 38.008811]
}}
,
{"type": "Feature", 
 "properties": {
"rentrak_id": "8118", "name": "Ukiah 6", "address": "612 S State St, Ukiah, CA"},
"geometry": {
"type": "Point",
"coordinates": [-123.2074658, 39.1451683]
}}
,
{"type": "Feature", 
 "properties": {
"rentrak_id": "5352", "name": "Sebastiani", "address": "476 1st St E, Sonoma, CA"},
"geometry": {
"type": "Point",
"coordinates": [-122.4564251, 38.2922736]
}}
,
{"type": "Feature", 
 "properties": {
"rentrak_id": "8830", "name": "Clover 4", "address": "121 E 1st St, Cloverdale, CA"},
"geometry": {
"type": "Point",
"coordinates": [-123.0161426, 38.8054407]
}}
,
{"type": "Feature", 
 "properties": {
"rentrak_id": "7011", "name": "BIG Cinemas Fremont 7", "address": "39160 Paseo Padre Pkwy, Fremont, CA"},
"geometry": {
"type": "Point",
"coordinates": [-121.9795778, 37.55410180000001]
}}
,
{"type": "Feature", 
 "properties": {
"rentrak_id": "8685", "name": "Foothill Towne Center Stadium 22", "address": "26602 Towne Centre Dr, Foothill Ranch, CA"},
"geometry": {
"type": "Point",
"coordinates": [-117.668939, 33.676586]
}}
,
{"type": "Feature", 
 "properties": {
"rentrak_id": "8929", "name": "Manchester Mall 16", "address": "2055 E Shields Ave, Fresno, CA"},
"geometry": {
"type": "Point",
"coordinates": [-119.786275, 36.78201800000001]
}}
,
{"type": "Feature", 
 "properties": {
"rentrak_id": "5945", "name": "Movies 8", "address": "5546 Philadelphia St, Chino, CA"},
"geometry": {
"type": "Point",
"coordinates": [-117.6829807, 34.0336671]
}}
,
{"type": "Feature", 
 "properties": {
"rentrak_id": "5947", "name": "County Fair Movies 5", "address": "1499 East St, Woodland, CA"},
"geometry": {
"type": "Point",
"coordinates": [-121.765561, 38.6629963]
}}
,
{"type": "Feature", 
 "properties": {
"rentrak_id": "5957", "name": "Solano Twin DI", "address": "1611 Solano Way, Concord, CA"},
"geometry": {
"type": "Point",
"coordinates": [-122.0492727, 37.9976681]
}}
,
{"type": "Feature", 
 "properties": {
"rentrak_id": "4877", "name": "Fairview 3", "address": "251 N Fairview Ave, Goleta, CA"},
"geometry": {
"type": "Point",
"coordinates": [-119.8306695, 34.4440852]
}}
,
{"type": "Feature", 
 "properties": {
"rentrak_id": "6812", "name": "Diamond Cinemas", "address": "32260 Mission Trl, Lake Elsinore, CA"},
"geometry": {
"type": "Point",
"coordinates": [-117.295737, 33.6533018]
}}
,
{"type": "Feature", 
 "properties": {
"rentrak_id": "6813", "name": "Hemet Cinema 12", "address": "2369 W Florida Ave, Hemet, CA"},
"geometry": {
"type": "Point",
"coordinates": [-116.9973171, 33.7455553]
}}
,
{"type": "Feature", 
 "properties": {
"rentrak_id": "6817", "name": "Raven 4", "address": "415 Center St, Healdsburg, CA"},
"geometry": {
"type": "Point",
"coordinates": [-122.8700061, 38.6125862]
}}
,
{"type": "Feature", 
 "properties": {
"rentrak_id": "6820", "name": "Digiplex Tower Plaza 10", "address": "27531 Ynez Rd, Temecula, CA"},
"geometry": {
"type": "Point",
"coordinates": [-117.1493385, 33.5037427]
}}
,
{"type": "Feature", 
 "properties": {
"rentrak_id": "6823", "name": "Downtown Centre 7 + MXP3 & Fremont", "address": "888 Marsh St, San Luis Obispo, CA"},
"geometry": {
"type": "Point",
"coordinates": [-120.6614327, 35.279576]
}}
,
{"type": "Feature", 
 "properties": {
"rentrak_id": "6715", "name": "Cerritos Stadium 10", "address": "12761 Towne Center Dr, Cerritos, CA"},
"geometry": {
"type": "Point",
"coordinates": [-118.0626363, 33.8704216]
}}
,
{"type": "Feature", 
 "properties": {
"rentrak_id": "5974", "name": "Westminster 10", "address": "6721 Westminster Blvd, Westminster, CA"},
"geometry": {
"type": "Point",
"coordinates": [-118.01067, 33.759595]
}}
,
{"type": "Feature", 
 "properties": {
"rentrak_id": "7711", "name": "(Temp Closed)", "address": "52 Soda Bay Rd, Lakeport, CA"},
"geometry": {
"type": "Point",
"coordinates": [-122.9088666, 39.0153484]
}}
,
{"type": "Feature", 
 "properties": {
"rentrak_id": "7419", "name": "Broadway Faire 10", "address": "3351 W Shaw Ave, Fresno, CA"},
"geometry": {
"type": "Point",
"coordinates": [-119.8526883, 36.806559]
}}
,
{"type": "Feature", 
 "properties": {
"rentrak_id": "7422", "name": "Camera 12", "address": "201 S 2nd St, San Jose, CA"},
"geometry": {
"type": "Point",
"coordinates": [-121.8872454, 37.3331523]
}}
,
{"type": "Feature", 
 "properties": {
"rentrak_id": "6609", "name": "Cinepolis La Costa 6 (Re 2/10)", "address": "6941 El Camino Real, Carlsbad, CA"},
"geometry": {
"type": "Point",
"coordinates": [-117.26814, 33.1037729]
}}
,
{"type": "Feature", 
 "properties": {
"rentrak_id": "5796", "name": "Clovis Movies 8", "address": "2301 Villa Ave, Clovis, CA"},
"geometry": {
"type": "Point",
"coordinates": [-119.7122047, 36.8060894]
}}
,
{"type": "Feature", 
 "properties": {
"rentrak_id": "5797", "name": "Regency 7", "address": "635 Fairfield Dr, Merced, CA"},
"geometry": {
"type": "Point",
"coordinates": [-120.4790104, 37.3201174]
}}
,
{"type": "Feature", 
 "properties": {
"rentrak_id": "5801", "name": "Arlington", "address": "1317 State St, Santa Barbara, CA"},
"geometry": {
"type": "Point",
"coordinates": [-119.7064583, 34.4246301]
}}
,
{"type": "Feature", 
 "properties": {
"rentrak_id": "901062", "name": "Daly City 20 + XD", "address": "1901 Junipero Serra Blvd, Daly City, CA"},
"geometry": {
"type": "Point",
"coordinates": [-122.4706101, 37.7018607]
}}
,
{"type": "Feature", 
 "properties": {
"rentrak_id": "7464", "name": "Laguna Village 12", "address": "8755 Center Pkwy, Sacramento, CA"},
"geometry": {
"type": "Point",
"coordinates": [-121.4214005, 38.4391733]
}}
,
{"type": "Feature", 
 "properties": {
"rentrak_id": "901103", "name": "Rancho Mirage River 15 + XD", "address": "71800 Us Highway 111, Rancho Mirage, CA"},
"geometry": {
"type": "Point",
"coordinates": [-116.410054, 33.7398104]
}}
,
{"type": "Feature", 
 "properties": {
"rentrak_id": "7037", "name": "Malibu Twin", "address": "3882 Cross Creek Rd, Malibu, CA"},
"geometry": {
"type": "Point",
"coordinates": [-118.685253, 34.0349663]
}}
,
{"type": "Feature", 
 "properties": {
"rentrak_id": "8901", "name": "Platinum 7", "address": "6851 Monterey Rd, Gilroy, CA"},
"geometry": {
"type": "Point",
"coordinates": [-121.5651886, 36.9988816]
}}
,
{"type": "Feature", 
 "properties": {
"rentrak_id": "4676", "name": "Balboa 2", "address": "3630 Balboa St, San Francisco, CA"},
"geometry": {
"type": "Point",
"coordinates": [-122.498063, 37.7760419]
}}
,
{"type": "Feature", 
 "properties": {
"rentrak_id": "5566", "name": "Contra Costa 8", "address": "555 Center Ave, Martinez, CA"},
"geometry": {
"type": "Point",
"coordinates": [-122.11855, 37.99391]
}}
,
{"type": "Feature", 
 "properties": {
"rentrak_id": "5356", "name": "Corte Madera Cinema 1", "address": "41 Tamal Vista Blvd, Corte Madera, CA"},
"geometry": {
"type": "Point",
"coordinates": [-122.5174593, 37.932292]
}}
,
{"type": "Feature", 
 "properties": {
"rentrak_id": "4831", "name": "Colusa Theatre", "address": "513 Market St, Colusa, CA"},
"geometry": {
"type": "Point",
"coordinates": [-122.008492, 39.213841]
}}
,
{"type": "Feature", 
 "properties": {
"rentrak_id": "8758", "name": "Oceanside Stadium 16", "address": "401 Mission Ave, Oceanside, CA"},
"geometry": {
"type": "Point",
"coordinates": [-117.3804359, 33.1950837]
}}
,
{"type": "Feature", 
 "properties": {
"rentrak_id": "8850", "name": "Riverbank 12", "address": "2525 Patterson Rd, Riverbank, CA"},
"geometry": {
"type": "Point",
"coordinates": [-120.951282, 37.733372]
}}
,
{"type": "Feature", 
 "properties": {
"rentrak_id": "8969", "name": "Green Valley 8", "address": "1125 Green Valley Rd, Watsonville, CA"},
"geometry": {
"type": "Point",
"coordinates": [-121.7761333, 36.9774475]
}}
,
{"type": "Feature", 
 "properties": {
"rentrak_id": "9058", "name": "Downtown Disney 12 with IMAX", "address": "1565 South Disneyland Drive, Anaheim, CA"},
"geometry": {
"type": "Point",
"coordinates": [-117.9241732, 33.8054527]
}}
,
{"type": "Feature", 
 "properties": {
"rentrak_id": "7012", "name": "Fairfax 6", "address": "100 Broadway Blvd, Fairfax, CA"},
"geometry": {
"type": "Point",
"coordinates": [-122.5911159, 37.9879933]
}}
,
{"type": "Feature", 
 "properties": {
"rentrak_id": "990797", "name": "Showplace 16 Manteca", "address": "848 Lifestyles St, Manteca, CA"},
"geometry": {
"type": "Point",
"coordinates": [-121.2274277, 37.7809501]
}}
,
{"type": "Feature", 
 "properties": {
"rentrak_id": "6559", "name": "Aptos Twin", "address": "122 Rancho Del Mar, Aptos, CA"},
"geometry": {
"type": "Point",
"coordinates": [-121.9067093, 36.976955]
}}
,
{"type": "Feature", 
 "properties": {
"rentrak_id": "990800", "name": "Bay Street 16 with IMAX", "address": "5614 Shellmound St, Emeryville, CA"},
"geometry": {
"type": "Point",
"coordinates": [-122.2929657, 37.8329411]
}}
,
{"type": "Feature", 
 "properties": {
"rentrak_id": "906533", "name": "(Temp Closed)", "address": "Pinecrest Lake Road, Pinecrest, CA"},
"geometry": {
"type": "Point",
"coordinates": [-119.9988361, 38.1901562]
}}
,
{"type": "Feature", 
 "properties": {
"rentrak_id": "6574", "name": "La Verne Stadium 12", "address": "1950 Foothill Blvd, La Verne, CA"},
"geometry": {
"type": "Point",
"coordinates": [-117.768967, 34.1144406]
}}
,
{"type": "Feature", 
 "properties": {
"rentrak_id": "6714", "name": "Simi Valley Plaza 10", "address": "1457 E Los Angeles Ave, Simi Valley, CA"},
"geometry": {
"type": "Point",
"coordinates": [-118.77072, 34.2732839]
}}
,
{"type": "Feature", 
 "properties": {
"rentrak_id": "6100", "name": "Sundance Sunset Cinema", "address": "8000 W Sunset Blvd, West Hollywood, CA"},
"geometry": {
"type": "Point",
"coordinates": [-118.3646528, 34.0974711]
}}
,
{"type": "Feature", 
 "properties": {
"rentrak_id": "902979", "name": "State", "address": "333 Oak Street, Red Bluff, CA"},
"geometry": {
"type": "Point",
"coordinates": [-122.23466, 40.175978]
}}
,
{"type": "Feature", 
 "properties": {
"rentrak_id": "902982", "name": "(Temp Closed)", "address": "201 E Lincoln Ave, Madera, CA"},
"geometry": {
"type": "Point",
"coordinates": [-120.0654827, 36.9717048]
}}
,
{"type": "Feature", 
 "properties": {
"rentrak_id": "902983", "name": "State", "address": "1307 J St, Modesto, CA"},
"geometry": {
"type": "Point",
"coordinates": [-120.997425, 37.643078]
}}
,
{"type": "Feature", 
 "properties": {
"rentrak_id": "902985", "name": "Arena", "address": "214 Main St, Point Arena, CA"},
"geometry": {
"type": "Point",
"coordinates": [-123.6924219, 38.9094981]
}}
,
{"type": "Feature", 
 "properties": {
"rentrak_id": "8508", "name": "Stadium 5", "address": "399 G St, Davis, CA"},
"geometry": {
"type": "Point",
"coordinates": [-121.7396146, 38.5461859]
}}
,
{"type": "Feature", 
 "properties": {
"rentrak_id": "4971", "name": "La Mirada 7", "address": "15296 Rosecrans Ave, La Mirada, CA"},
"geometry": {
"type": "Point",
"coordinates": [-118.0054758, 33.8972875]
}}
,
{"type": "Feature", 
 "properties": {
"rentrak_id": "8647", "name": "Avenal", "address": "233 E Kings St, Avenal, CA"},
"geometry": {
"type": "Point",
"coordinates": [-120.1352283, 36.0025385]
}}
,
{"type": "Feature", 
 "properties": {
"rentrak_id": "4849", "name": "Albany Twin", "address": "1115 Solano Ave, Albany, CA"},
"geometry": {
"type": "Point",
"coordinates": [-122.298192, 37.8903389]
}}
,
{"type": "Feature", 
 "properties": {
"rentrak_id": "4662", "name": "Sacramento Stadium 14", "address": "1590 Ethan Way, Sacramento, CA"},
"geometry": {
"type": "Point",
"coordinates": [-121.4186077, 38.5942852]
}}
,
{"type": "Feature", 
 "properties": {
"rentrak_id": "8398", "name": "Orange 30 with IMAX & ETX", "address": "2 City Blvd W, Orange, CA"},
"geometry": {
"type": "Point",
"coordinates": [-117.894345, 33.7801079]
}}
,
{"type": "Feature", 
 "properties": {
"rentrak_id": "5088", "name": "Bakersfield 6", "address": "4200 California Ave, Bakersfield, CA"},
"geometry": {
"type": "Point",
"coordinates": [-119.0483103, 35.369169]
}}
,
{"type": "Feature", 
 "properties": {
"rentrak_id": "8970", "name": "Monrovia 12", "address": "410 S Myrtle Ave, Monrovia, CA"},
"geometry": {
"type": "Point",
"coordinates": [-117.9998359, 34.1473126]
}}
,
{"type": "Feature", 
 "properties": {
"rentrak_id": "8117", "name": "Jackson 4", "address": "201 Shopping Dr, Jackson, CA"},
"geometry": {
"type": "Point",
"coordinates": [-120.7645552, 38.3419955]
}}
,
{"type": "Feature", 
 "properties": {
"rentrak_id": "8216", "name": "Rheem 4", "address": "350 Park St, Moraga, CA"},
"geometry": {
"type": "Point",
"coordinates": [-122.1279782, 37.8610623]
}}
,
{"type": "Feature", 
 "properties": {
"rentrak_id": "5993", "name": "Crest 3", "address": "1013 K St, Sacramento, CA"},
"geometry": {
"type": "Point",
"coordinates": [-121.493413, 38.5791628]
}}
,
{"type": "Feature", 
 "properties": {
"rentrak_id": "9316", "name": "Santana Row Winchester Blvd", "address": "3161 Olsen Dr, San Jose, CA"},
"geometry": {
"type": "Point",
"coordinates": [-121.952225, 37.319138]
}}
,
{"type": "Feature", 
 "properties": {
"rentrak_id": "8020", "name": "Plaza Playhouse Theater", "address": "4916 Carpinteria Ave, Carpinteria, CA"},
"geometry": {
"type": "Point",
"coordinates": [-119.5189289, 34.3994268]
}}
,
{"type": "Feature", 
 "properties": {
"rentrak_id": "7169", "name": "Serra", "address": "200 Serra Way, Milpitas, CA"},
"geometry": {
"type": "Point",
"coordinates": [-121.9089915, 37.4268271]
}}
,
{"type": "Feature", 
 "properties": {
"rentrak_id": "7975", "name": "Fashion Valley 18", "address": "7037 Friars Rd, San Diego, CA"},
"geometry": {
"type": "Point",
"coordinates": [-117.1692946, 32.7671698]
}}
,
{"type": "Feature", 
 "properties": {
"rentrak_id": "990849", "name": "Del Amo 18 with IMAX", "address": "3525 W. Carson St., Torrance, CA"},
"geometry": {
"type": "Point",
"coordinates": [-118.3475912, 33.8324138]
}}
,
{"type": "Feature", 
 "properties": {
"rentrak_id": "7807", "name": "Redlands 14", "address": "340 N Eureka St, Redlands, CA"},
"geometry": {
"type": "Point",
"coordinates": [-117.1856078, 34.0583541]
}}
,
{"type": "Feature", 
 "properties": {
"rentrak_id": "7874", "name": "Winnetka All Stadium 21", "address": "9201 Winnetka Ave, Chatsworth, CA"},
"geometry": {
"type": "Point",
"coordinates": [-118.5744466, 34.2382998]
}}
,
{"type": "Feature", 
 "properties": {
"rentrak_id": "8067", "name": "Bianchi 11", "address": "7770 Rosecrans Ave, Paramount, CA"},
"geometry": {
"type": "Point",
"coordinates": [-118.163368, 33.903126]
}}
,
{"type": "Feature", 
 "properties": {
"rentrak_id": "8502", "name": "Arcata", "address": "1036 G St, Arcata, CA"},
"geometry": {
"type": "Point",
"coordinates": [-124.0851291, 40.8699101]
}}
,
{"type": "Feature", 
 "properties": {
"rentrak_id": "9206", "name": "Cinemark 18 + IMAX", "address": "6081 Center Dr, Los Angeles, CA"},
"geometry": {
"type": "Point",
"coordinates": [-118.391949, 33.9780349]
}}
,
{"type": "Feature", 
 "properties": {
"rentrak_id": "954901", "name": "Heavenly Village Cinemas", "address": "1021 Heavenly Village Way, South Lake Tahoe, CA"},
"geometry": {
"type": "Point",
"coordinates": [-119.9423366, 38.9555856]
}}
,
{"type": "Feature", 
 "properties": {
"rentrak_id": "990280", "name": "Redwood Downtown 20 + XD", "address": "825 Middlefield Road, Redwood City, CA"},
"geometry": {
"type": "Point",
"coordinates": [-122.228602, 37.485762]
}}
,
{"type": "Feature", 
 "properties": {
"rentrak_id": "990656", "name": "Century Tanforan 20 + XD", "address": "1188 El Camino Real, San Bruno, CA"},
"geometry": {
"type": "Point",
"coordinates": [-122.4182455, 37.6380751]
}}
,
{"type": "Feature", 
 "properties": {
"rentrak_id": "990974", "name": "Long Beach Stadium 26 with IMAX", "address": "7501 Carson Blvd, Long Beach, CA"},
"geometry": {
"type": "Point",
"coordinates": [-118.0862161, 33.8298422]
}}
,
{"type": "Feature", 
 "properties": {
"rentrak_id": "7690", "name": "Town Square 14", "address": "4665 Clairemont Dr, San Diego, CA"},
"geometry": {
"type": "Point",
"coordinates": [-117.2054744, 32.8292238]
}}
,
{"type": "Feature", 
 "properties": {
"rentrak_id": "8693", "name": "Jurupa Stadium 14", "address": "8032 Limonite Ave, Riverside, CA"},
"geometry": {
"type": "Point",
"coordinates": [-117.4592333, 33.9764147]
}}
,
{"type": "Feature", 
 "properties": {
"rentrak_id": "7636", "name": "Olympus Pointe 12", "address": "520 N Sunrise Ave, Roseville, CA"},
"geometry": {
"type": "Point",
"coordinates": [-121.256297, 38.756802]
}}
,
{"type": "Feature", 
 "properties": {
"rentrak_id": "904458", "name": "Burbank 30 with IMAX & AMC Prime", "address": "125 E Palm Ave, Burbank, CA"},
"geometry": {
"type": "Point",
"coordinates": [-118.3116539, 34.1816961]
}}
,
{"type": "Feature", 
 "properties": {
"rentrak_id": "904873", "name": "San Jose Oakridge 20 + XD", "address": "925 Blossom Hill Rd, San Jose, CA"},
"geometry": {
"type": "Point",
"coordinates": [-121.8612935, 37.2524718]
}}
,
{"type": "Feature", 
 "properties": {
"rentrak_id": "990353", "name": "Rialto Cinemas Cerrito", "address": "10070 San Pablo Ave., El Cerrito, CA"},
"geometry": {
"type": "Point",
"coordinates": [-122.3027835, 37.901896]
}}
,
{"type": "Feature", 
 "properties": {
"rentrak_id": "5559", "name": "Shattuck 10", "address": "2230 Shattuck Ave, Berkeley, CA"},
"geometry": {
"type": "Point",
"coordinates": [-122.2683157, 37.8687679]
}}
,
{"type": "Feature", 
 "properties": {
"rentrak_id": "4663", "name": "Marina Theatre", "address": "2149 Chestnut St, San Francisco, CA"},
"geometry": {
"type": "Point",
"coordinates": [-122.4386429, 37.8005077]
}}
,
{"type": "Feature", 
 "properties": {
"rentrak_id": "5528", "name": "Santa Monica 7", "address": "1310 3rd Street Promenade, Santa Monica, CA"},
"geometry": {
"type": "Point",
"coordinates": [-118.497726, 34.01659000000001]
}}
,
{"type": "Feature", 
 "properties": {
"rentrak_id": "8315", "name": "Kaleidoscope Stadium 10", "address": "27741 Crown Valley Pkwy, Mission Viejo, CA"},
"geometry": {
"type": "Point",
"coordinates": [-117.6711141, 33.5605355]
}}
,
{"type": "Feature", 
 "properties": {
"rentrak_id": "904287", "name": "Culver City 12", "address": "9500 Culver Blvd, Culver City, CA"},
"geometry": {
"type": "Point",
"coordinates": [-118.3930974, 34.0239466]
}}
,
{"type": "Feature", 
 "properties": {
"rentrak_id": "989910", "name": "Imperial Valley 14", "address": "3651 South Dogwood, El Centro, CA"},
"geometry": {
"type": "Point",
"coordinates": [-115.528278, 32.759418]
}}
,
{"type": "Feature", 
 "properties": {
"rentrak_id": "990244", "name": "Hacienda Crossings Stadium 20 + IMAX", "address": "4999 Dublin Blvd, Dublin, CA"},
"geometry": {
"type": "Point",
"coordinates": [-121.8816156, 37.7059277]
}}
,
{"type": "Feature", 
 "properties": {
"rentrak_id": "990248", "name": "Irvine Spectrum 21 + IMAX & RPX", "address": "65 Fortune Dr, Irvine, CA"},
"geometry": {
"type": "Point",
"coordinates": [-117.744919, 33.651674]
}}
,
{"type": "Feature", 
 "properties": {
"rentrak_id": "989941", "name": "Boulevard 14", "address": "201 C St, Petaluma, CA"},
"geometry": {
"type": "Point",
"coordinates": [-122.6376392, 38.2335701]
}}
,
{"type": "Feature", 
 "properties": {
"rentrak_id": "8116", "name": "Prime Cinemas 6", "address": "400 S Main St, Red Bluff, CA"},
"geometry": {
"type": "Point",
"coordinates": [-122.2281632, 40.1666053]
}}
,
{"type": "Feature", 
 "properties": {
"rentrak_id": "990256", "name": "Valencia Stadium 12 + IMAX", "address": "24435 Town Center Drive, Santa Clarita, CA"},
"geometry": {
"type": "Point",
"coordinates": [-118.5597635, 34.4174367]
}}
,
{"type": "Feature", 
 "properties": {
"rentrak_id": "990457", "name": "Mira Mesa Stadium 17 + IMAX & RPX", "address": "10733 Westview Pkwy, San Diego, CA"},
"geometry": {
"type": "Point",
"coordinates": [-117.116775, 32.9153624]
}}
,
{"type": "Feature", 
 "properties": {
"rentrak_id": "8293", "name": "San Marcos Stadium 18", "address": "1180 W San Marcos Blvd, San Marcos, CA"},
"geometry": {
"type": "Point",
"coordinates": [-117.1921885, 33.1338437]
}}
,
{"type": "Feature", 
 "properties": {
"rentrak_id": "7511", "name": "Movies 14", "address": "3300 S Naglee Rd, Tracy, CA"},
"geometry": {
"type": "Point",
"coordinates": [-121.4591292, 37.7609357]
}}
,
{"type": "Feature", 
 "properties": {
"rentrak_id": "990179", "name": "Rio Theater", "address": "20396 Bohemian Highway, Monte Rio, CA"},
"geometry": {
"type": "Point",
"coordinates": [-123.0106029, 38.4676086]
}}
,
{"type": "Feature", 
 "properties": {
"rentrak_id": "990315", "name": "San Francisco Centre 9 + XD", "address": "845 Market Street, San Francisco, CA"},
"geometry": {
"type": "Point",
"coordinates": [-122.4066717, 37.7849478]
}}
,
{"type": "Feature", 
 "properties": {
"rentrak_id": "990072", "name": "Huntington Beach Bella Terra 20 + XD", "address": "7777 Edinger Ave, Huntington Beach, CA"},
"geometry": {
"type": "Point",
"coordinates": [-117.9943078, 33.7329463]
}}
,
{"type": "Feature", 
 "properties": {
"rentrak_id": "990464", "name": "Tustin 14", "address": "2457 Park Ave., Tustin, CA"},
"geometry": {
"type": "Point",
"coordinates": [-117.8289852, 33.6969452]
}}
,
{"type": "Feature", 
 "properties": {
"rentrak_id": "990501", "name": "Claremont 5", "address": "450 W 2nd St, Claremont, CA"},
"geometry": {
"type": "Point",
"coordinates": [-117.7203091, 34.0954153]
}}
,
{"type": "Feature", 
 "properties": {
"rentrak_id": "8015", "name": "Rialto Cinemas Elmwood", "address": "2966 College Ave, Berkeley, CA"},
"geometry": {
"type": "Point",
"coordinates": [-122.253292, 37.856681]
}}
,
{"type": "Feature", 
 "properties": {
"rentrak_id": "989920", "name": "(Temp Closed)", "address": "300 Throckmorton Avenue, Mill Valley, CA"},
"geometry": {
"type": "Point",
"coordinates": [-122.5518212, 37.9050557]
}}
,
{"type": "Feature", 
 "properties": {
"rentrak_id": "5533", "name": "Franciscan Plaza Theatre", "address": "26762 Verdugo St, San Juan Capo, CA"},
"geometry": {
"type": "Point",
"coordinates": [-117.6628014, 33.5011561]
}}
,
{"type": "Feature", 
 "properties": {
"rentrak_id": "990481", "name": "The Landmark", "address": "10850 W Pico Blvd., Los Angeles, CA"},
"geometry": {
"type": "Point",
"coordinates": [-118.4289983, 34.0396976]
}}
,
{"type": "Feature", 
 "properties": {
"rentrak_id": "990690", "name": "Alameda Stadium 8", "address": "2311 Central Ave, Alameda, CA"},
"geometry": {
"type": "Point",
"coordinates": [-122.243381, 37.7645838]
}}
,
{"type": "Feature", 
 "properties": {
"rentrak_id": "990701", "name": "GardenWalk 14", "address": "321 W Katella Ave, Anaheim, CA"},
"geometry": {
"type": "Point",
"coordinates": [-117.9118937, 33.8037043]
}}
,
{"type": "Feature", 
 "properties": {
"rentrak_id": "990942", "name": "Cinemark Apple Valley 12 (5/1)", "address": "18935 Bear Valley Rd, Apple Valley, CA"},
"geometry": {
"type": "Point",
"coordinates": [-117.250443, 34.467984]
}}
,
{"type": "Feature", 
 "properties": {
"rentrak_id": "991030", "name": "L.A. Live Stadium 14", "address": "1000 West Olympic Blvd., Los Angeles, CA"},
"geometry": {
"type": "Point",
"coordinates": [-118.2680272, 34.0457356]
}}
,
{"type": "Feature", 
 "properties": {
"rentrak_id": "905231", "name": "Grossmont 10", "address": "5534 Grossmont Center Dr, La Mesa, CA"},
"geometry": {
"type": "Point",
"coordinates": [-117.0083852, 32.7790598]
}}
,
{"type": "Feature", 
 "properties": {
"rentrak_id": "905232", "name": "Lakewood 16", "address": "5200 Faculty Ave, Lakewood, CA"},
"geometry": {
"type": "Point",
"coordinates": [-118.1363461, 33.8521172]
}}
,
{"type": "Feature", 
 "properties": {
"rentrak_id": "905252", "name": "Lemoore Cinemas", "address": "400 Follett St, Lemoore, CA"},
"geometry": {
"type": "Point",
"coordinates": [-119.7833002, 36.3030829]
}}
,
{"type": "Feature", 
 "properties": {
"rentrak_id": "990420", "name": "Digiplex Apple Valley 14 Cinemas", "address": "22311 Bear Valley Road Bldg A, Apple Valley, CA"},
"geometry": {
"type": "Point",
"coordinates": [-117.1756774, 34.4715519]
}}
,
{"type": "Feature", 
 "properties": {
"rentrak_id": "6556", "name": "Del Mar 3", "address": "1124 Pacific Ave, Santa Cruz, CA"},
"geometry": {
"type": "Point",
"coordinates": [-122.0252, 36.97256]
}}
,
{"type": "Feature", 
 "properties": {
"rentrak_id": "5071", "name": "Regency East Hills Mall", "address": "3000 Mall View Rd, Bakersfield, CA"},
"geometry": {
"type": "Point",
"coordinates": [-118.9594633, 35.394926]
}}
,
{"type": "Feature", 
 "properties": {
"rentrak_id": "990915", "name": "Mercado 20 with IMAX", "address": "3111 Mission College Blvd, Santa Clara, CA"},
"geometry": {
"type": "Point",
"coordinates": [-121.9832197, 37.3891074]
}}
,
{"type": "Feature", 
 "properties": {
"rentrak_id": "990919", "name": "Palm Promenade 24 with IMAX", "address": "770 Dennery Rd, San Diego, CA"},
"geometry": {
"type": "Point",
"coordinates": [-117.0363343, 32.5789133]
}}
,
{"type": "Feature", 
 "properties": {
"rentrak_id": "990925", "name": "Escondido Stadium 16 with IMAX", "address": "350 W Valley Pkwy, Escondido, CA"},
"geometry": {
"type": "Point",
"coordinates": [-117.0870089, 33.1216232]
}}
,
{"type": "Feature", 
 "properties": {
"rentrak_id": "990927", "name": "Aliso Viejo Stadium 20 with IMAX", "address": "26701 Aliso Creek Rd, Aliso Viejo, CA"},
"geometry": {
"type": "Point",
"coordinates": [-117.7267302, 33.576646]
}}
,
{"type": "Feature", 
 "properties": {
"rentrak_id": "990992", "name": "Maya Bakersfield 16", "address": "1000 California Ave, Bakersfield, CA"},
"geometry": {
"type": "Point",
"coordinates": [-119.013492, 35.369397]
}}
,
{"type": "Feature", 
 "properties": {
"rentrak_id": "991005", "name": "Puente Hills 20 with IMAX", "address": "1560 S Azusa Ave, Industry, CA"},
"geometry": {
"type": "Point",
"coordinates": [-117.9266347, 33.9949937]
}}
,
{"type": "Feature", 
 "properties": {
"rentrak_id": "991456", "name": "Eight Cinematic", "address": "1459 Clayton St, San Francisco, CA"},
"geometry": {
"type": "Point",
"coordinates": [-122.4450902, 37.7582901]
}}
,
{"type": "Feature", 
 "properties": {
"rentrak_id": "991529", "name": "Paramount DI", "address": "770 Rosecrans Ave, Paramount, CA"},
"geometry": {
"type": "Point",
"coordinates": [-118.2154841, 33.9033186]
}}
,
{"type": "Feature", 
 "properties": {
"rentrak_id": "991486", "name": "Santa Maria Stadium 14 & RPX", "address": "100 Town Center East, Santa Maria, CA"},
"geometry": {
"type": "Point",
"coordinates": [-120.4340716, 34.9519251]
}}
,
{"type": "Feature", 
 "properties": {
"rentrak_id": "991442", "name": "MGN Five Star Cinema", "address": "128 N. Maryland Ave., Glendale, CA"},
"geometry": {
"type": "Point",
"coordinates": [-118.2538028, 34.1474361]
}}
,
{"type": "Feature", 
 "properties": {
"rentrak_id": "991452", "name": "Alamo Drafthouse", "address": "2550 Mission St, San Francisco, CA"},
"geometry": {
"type": "Point",
"coordinates": [-122.4188696, 37.7562424]
}}
]}
